[{"lon":86.2218613,"lat":29.5114515,"label":"གཞིས་ཀ་རྩེ་གྲོང་ཁྱེར།","src":"name:bo","bo":"གཞིས་ཀ་རྩེ་གྲོང་ཁྱེར།","en":"Shigatse Prefecture","name":"日喀则市 གཞིས་ཀ་རྩེ་གྲོང་ཁྱེར།","place":"","level":"5","kind":"admin","id":"relation/2744623"},{"lon":96.3542974,"lat":30.5144067,"label":"ཆབ་མདོ་ས་ཁུལ།","src":"name:bo","bo":"ཆབ་མདོ་ས་ཁུལ།","en":"Chamdo City","name":"昌都市 ཆབ་མདོ་ས་ཁུལ།","place":"","level":"5","kind":"admin","id":"relation/2734866"},{"lon":95.4587916,"lat":29.3878962,"label":"ཉིང་ཁྲི་གྲོང་ཁྱེར།","src":"name:bo","bo":"ཉིང་ཁྲི་གྲོང་ཁྱེར།","en":"Nyingchi Prefecture","name":"林芝市 ཉིང་ཁྲི་གྲོང་ཁྱེར།","place":"","level":"5","kind":"admin","id":"relation/2734427"},{"lon":90.0501563,"lat":33.2116954,"label":"ནག་ཆུ་ས་ཁུལ།","src":"name:bo","bo":"ནག་ཆུ་ས་ཁུལ།","en":"Nagqu City","name":"那曲市 ནག་ཆུ་ས་ཁུལ།","place":"","level":"5","kind":"admin","id":"relation/2744938"},{"lon":82.3583507,"lat":32.7717314,"label":"མངའ་རིས་ས་གནས","src":"name:bo","bo":"མངའ་རིས་ས་གནས","en":"Ngari Prefecture","name":"阿里地区 མངའ་རིས་ས་ཁུལ་","place":"","level":"5","kind":"admin","id":"relation/1997914"},{"lon":91.1322,"lat":29.6604,"label":"ལྷ་ས་གྲོང་ཁྱེར།","src":"name:bo","bo":"ལྷ་ས་གྲོང་ཁྱེར།","en":"Lhasa","name":"拉萨市 ལྷ་ས་གྲོང་ཁྱེར།","place":"","level":"5","kind":"admin","id":"relation/2745046"},{"lon":91.7862975,"lat":28.7711175,"label":"ལྷོ་ཁ་ས་ཁུལ།","src":"name:bo","bo":"ལྷོ་ཁ་ས་ཁུལ།","en":"Lhoka","name":"山南市 ལྷོ་ཁ་ས་ཁུལ།","place":"","level":"5","kind":"admin","id":"relation/2743978"},{"lon":89.6251916,"lat":28.4734,"label":"ཁང་དམར་རྫོང།","src":"name:bo","bo":"ཁང་དམར་རྫོང།","en":"Kangmar County","name":"康马县 ཁང་དམར་རྫོང།","place":"","level":"6","kind":"admin","id":"relation/2744881"},{"lon":91.1565686,"lat":29.6577073,"label":"ཁྲིན་ཀོན་ཆུས་","src":"name:bo","bo":"ཁྲིན་ཀོན་ཆུས་","en":"Chengguan District","name":"城关区 ཁྲིན་ཀོན་ཆུས།","place":"","level":"6","kind":"admin","id":"relation/2745212"},{"lon":86.0408363,"lat":28.5189329,"label":"གཉའ་ལམ་རྫོང་","src":"name:bo","bo":"གཉའ་ལམ་རྫོང་","en":"Nyalam County","name":"聂拉木县 གཉའ་ལམ་རྫོང་","place":"","level":"6","kind":"admin","id":"relation/2744883"},{"lon":87.8315734,"lat":28.2732979,"label":"གཏིང་སྐྱེས་རྫོང།","src":"name:bo","bo":"གཏིང་སྐྱེས་རྫོང།","en":"Dinggyê County","name":"定结县 གཏིང་སྐྱེས་རྫོང།","place":"","level":"6","kind":"admin","id":"relation/2744877"},{"lon":88.5545978,"lat":28.3484874,"label":"གམ་པ་རྫོང།","src":"name:bo","bo":"གམ་པ་རྫོང།","en":"Kampa County","name":"岗巴县 གམ་པ་རྫོང།","place":"","level":"6","kind":"admin","id":"relation/2744878"},{"lon":98.4168882,"lat":30.7504858,"label":"གོ་འཇོ་རྫོང","src":"name:bo","bo":"གོ་འཇོ་རྫོང","en":"Gonjo County","name":"贡觉县 གོ་འཇོ་རྫོང།","place":"","level":"6","kind":"admin","id":"relation/2734910"},{"lon":90.853712,"lat":29.2339658,"label":"གོང་དཀར་རྫོང།","src":"name:bo","bo":"གོང་དཀར་རྫོང།","en":"Gonggar County","name":"贡嘎县 གོང་དཀར་རྫོང།","place":"","level":"6","kind":"admin","id":"relation/2743968"},{"lon":91.3985272,"lat":29.2650309,"label":"གྲ་ནང་རྫོང།","src":"name:bo","bo":"གྲ་ནང་རྫོང།","en":"Zhanang County","name":"扎囊县 གྲ་ནང་རྫོང།","place":"","level":"6","kind":"admin","id":"relation/2743977"},{"lon":89.1539424,"lat":27.7686319,"label":"གྲོ་མོ་རྫོང།","src":"name:bo","bo":"གྲོ་མོ་རྫོང།","en":"Yadong County","name":"亚东县 གྲོ་མོ་རྫོང།","place":"","level":"6","kind":"admin","id":"relation/2744888"},{"lon":86.6621705,"lat":29.990677,"label":"ངམ་རིང་རྫོང།","src":"name:bo","bo":"ངམ་རིང་རྫོང།","en":"Ngamring County","name":"昂仁县 ངམ་རིང་རྫོང།","place":"","level":"6","kind":"admin","id":"relation/2744620"},{"lon":97.3258334,"lat":31.5037411,"label":"ཆབ་མདོ་རྫོང","src":"name:bo","bo":"ཆབ་མདོ་རྫོང","en":"Karuo District","name":"卡若区 མཁར་རོ་ཆུས།","place":"","level":"6","kind":"admin","id":"relation/2734864"},{"lon":92.2143588,"lat":28.9448924,"label":"ཆུ་གསུམ་རྫོང།","src":"name:bo","bo":"ཆུ་གསུམ་རྫོང།","en":"Chusum County","name":"曲松县 ཆུ་གསུམ་རྫོང།","place":"","level":"6","kind":"admin","id":"relation/2743975"},{"lon":90.7119756,"lat":29.4210338,"label":"ཆུ་ཤུར་རྫོང་","src":"name:bo","bo":"ཆུ་ཤུར་རྫོང་","en":"Qüxü County","name":"曲水县 ཆུ་ཤུར་རྫོང་།","place":"","level":"6","kind":"admin","id":"relation/2745219"},{"lon":86.5996081,"lat":32.9515739,"label":"ཉི་མ་རྫོང་།","src":"name:bo","bo":"ཉི་མ་རྫོང་།","en":"Nyima County","name":"尼玛县 ཉི་མ་རྫོང།","place":"","level":"6","kind":"admin","id":"relation/2745053"},{"lon":81.8250494,"lat":32.0089432,"label":"དགེ་རྒྱས་རྫོང་","src":"name:bo","bo":"དགེ་རྒྱས་རྫོང་","en":"Gegyai County","name":"革吉县 དགེ་རྒྱས་རྫོང་།","place":"","level":"6","kind":"admin","id":"relation/1997911"},{"lon":96.8737415,"lat":30.0703241,"label":"དཔའ་ཤོད་རྫོང","src":"name:bo","bo":"དཔའ་ཤོད་རྫོང","en":"Pasho County","name":"八宿县 དཔའ་ཤོད་རྫོང།","place":"","level":"6","kind":"admin","id":"relation/2734909"},{"lon":90.1381886,"lat":31.0917304,"label":"དཔལ་མགོན་རྫོང།","src":"name:bo","bo":"དཔལ་མགོན་རྫོང།","en":"Baingoin County","name":"班戈县 དཔལ་མགོན་རྫོང།","place":"","level":"6","kind":"admin","id":"relation/2747064"},{"lon":94.4702446,"lat":30.9640882,"label":"དཔལ་འབར་རྫོང།","src":"name:bo","bo":"དཔལ་འབར་རྫོང།","en":"Banbar County","name":"边坝县 དཔལ་འབར་རྫོང།","place":"","level":"6","kind":"admin","id":"relation/2745361"},{"lon":86.9805152,"lat":28.4776334,"label":"དིང་རི་རྫོང།","src":"name:bo","bo":"དིང་རི་རྫོང།","en":"Tingri County","name":"定日县 དིང་རི་རྫོང།","place":"","level":"6","kind":"admin","id":"relation/2744887"},{"lon":89.107297,"lat":28.7905775,"label":"པ་སྣམ་རྫོང།","src":"name:bo","bo":"པ་སྣམ་རྫོང།","en":"Bainang County","name":"白朗县 པ་སྣམ་རྫོང།","place":"","level":"6","kind":"admin","id":"relation/2744876"},{"lon":88.0554388,"lat":29.8741403,"label":"བཞད་མཐོང་སྨོན་རྫོང།","src":"name:bo","bo":"བཞད་མཐོང་སྨོན་རྫོང།","en":"Xaitongmoin County","name":"谢通门县 བཞད་མཐོང་སྨོན་རྫོང།","place":"","level":"6","kind":"admin","id":"relation/2744622"},{"lon":89.0698958,"lat":29.2969502,"label":"བསམ་འགྲུབ་རྩེ་ཆུས།","src":"name:bo","bo":"བསམ་འགྲུབ་རྩེ་ཆུས།","en":"Samzhubzê District","name":"桑珠孜区 བསམ་འགྲུབ་རྩེ་ཆུས།","place":"","level":"6","kind":"admin","id":"relation/2744886"},{"lon":97.8305845,"lat":30.603576,"label":"བྲག་གཡབ་རྫོང།","src":"name:bo","bo":"བྲག་གཡབ་རྫོང།","en":"Zhag'yab County","name":"察雅县 བྲག་གཡབ་རྫོང།","place":"","level":"6","kind":"admin","id":"relation/2734915"},{"lon":94.3698141,"lat":29.8067252,"label":"བྲག་ཡིབ་ཆུས།","src":"name:bo","bo":"བྲག་ཡིབ་ཆུས།","en":"Bayi District","name":"巴宜区 བྲག་ཡིབ་ཆུས།","place":"","level":"6","kind":"admin","id":"relation/2734503"},{"lon":88.2212164,"lat":34.0634086,"label":"མཚོ་གཉིས་རྫོང།","src":"name:bo","bo":"མཚོ་གཉིས་རྫོང།","en":"Shuanghu County","name":"双湖县 མཚོ་གཉིས་རྫོང།","place":"","level":"6","kind":"admin","id":"relation/2747065"},{"lon":85.2023217,"lat":30.6792516,"label":"མཚོ་ཆེན་རྫོང","src":"name:bo","bo":"མཚོ་ཆེན་རྫོང","en":"Coqên County","name":"措勤县 མཚོ་ཆེན་རྫོང་།","place":"","level":"6","kind":"admin","id":"relation/1997908"},{"lon":91.5459574,"lat":28.5764464,"label":"མཚོ་སམད་རྫོང་།","src":"name:bo","bo":"མཚོ་སམད་རྫོང་།","en":"Comai County","name":"措美县 མཚོ་སམད་རྫོང་།","place":"","level":"6","kind":"admin","id":"relation/2743966"},{"lon":92.0677746,"lat":28.0903195,"label":"མཚོ་སྣ་གྲོང་ཁྱེར།","src":"name:bo","bo":"མཚོ་སྣ་གྲོང་ཁྱེར།","en":"Tsona City","name":"错那市 མཚོ་སྣ་གྲོང་ཁྱེར།","place":"","level":"6","kind":"admin","id":"relation/2743967"},{"lon":97.881901,"lat":29.4413632,"label":"མཛོ་སྒང་རྫོང།","src":"name:bo","bo":"མཛོ་སྒང་རྫོང།","en":"Zogang County","name":"左贡县 མཛོ་སྒང་རྫོང།","place":"","level":"6","kind":"admin","id":"relation/2734916"},{"lon":92.0847395,"lat":29.9194982,"label":"མལ་གྲོ་གུང་དཀར་རྫོང་","src":"name:bo","bo":"མལ་གྲོ་གུང་དཀར་རྫོང་","en":"Maizhokunggar County","name":"墨竹工卡县 མལ་གྲོ་གུང་དཀར་རྫོང་།","place":"","level":"6","kind":"admin","id":"relation/2745217"},{"lon":95.4146756,"lat":29.5028159,"label":"མེ་ཏོག་རྫོང།","src":"name:bo","bo":"མེ་ཏོག་རྫོང།","en":"Mêdog County","name":"墨脱县 མེ་ཏོག་རྫོང།","place":"","level":"6","kind":"admin","id":"relation/2734501"},{"lon":92.2248844,"lat":29.4166531,"label":"ཟངས་རི་རྫོང།","src":"name:bo","bo":"ཟངས་རི་རྫོང།","en":"Sangri County","name":"桑日县 ཟངས་རི་རྫོང།","place":"","level":"6","kind":"admin","id":"relation/2743976"},{"lon":98.1072676,"lat":31.8014218,"label":"འཇོ་མདའ་རྫོང་།","src":"name:bo","bo":"འཇོ་མདའ་རྫོང་།","en":"Jomda County","name":"江达县 འཇོ་མདའ་རྫོང།","place":"","level":"6","kind":"admin","id":"relation/2734911"},{"lon":90.9905394,"lat":30.2863222,"label":"འདམ་གཞུང་རྫོང","src":"name:bo","bo":"འདམ་གཞུང་རྫོང","en":"Damxung County","name":"当雄县 འདམ་གཞུང་རྫོང་།","place":"","level":"6","kind":"admin","id":"relation/2745214"},{"lon":91.5774002,"lat":29.0159006,"label":"འཕྱོངས་རྒྱས་རྫོང།","src":"name:bo","bo":"འཕྱོངས་རྒྱས་རྫོང།","en":"Chongye County","name":"琼结县 འཕྱོངས་རྒྱས་རྫོང།","place":"","level":"6","kind":"admin","id":"relation/2743974"},{"lon":93.4383115,"lat":31.4763923,"label":"འབྲི་རུ་རྫོང།","src":"name:bo","bo":"འབྲི་རུ་རྫོང།","en":"Biru County","name":"比如县 འབྲི་རུ་རྫོང།","place":"","level":"6","kind":"admin","id":"relation/2745049"},{"lon":83.4369317,"lat":30.484296,"label":"འབྲོང་པ་རྫོང།","src":"name:bo","bo":"འབྲོང་པ་རྫོང།","en":"Zhongba County","name":"仲巴县 འབྲོང་པ་རྫོང།","place":"","level":"6","kind":"admin","id":"relation/2744889"},{"lon":96.3862343,"lat":31.4400231,"label":"རི་བོ་ཆེ་རྫོང།","src":"name:bo","bo":"རི་བོ་ཆེ་རྫོང།","en":"Riwoche County","name":"类乌齐县 རི་བོ་ཆེ་རྫོང།","place":"","level":"6","kind":"admin","id":"relation/2734914"},{"lon":89.9940607,"lat":29.2436694,"label":"རིན་སྤུངས་རྫོང།","src":"name:bo","bo":"རིན་སྤུངས་རྫོང།","en":"Rinbung County","name":"仁布县 རིན་སྤུངས་རྫོང།","place":"","level":"6","kind":"admin","id":"relation/2744621"},{"lon":80.5559204,"lat":33.9930411,"label":"རུ་ཐོག་རྫོང་།","src":"name:bo","bo":"རུ་ཐོག་རྫོང་།","en":"Rutog County","name":"日土县 རུ་ཐོག་རྫོང་།","place":"","level":"6","kind":"admin","id":"relation/1997912"},{"lon":92.7198887,"lat":29.2703676,"label":"རྒྱ་ཚ་རྫོང།","src":"name:bo","bo":"རྒྱ་ཚ་རྫོང།","en":"Gyatsa County","name":"加查县 རྒྱ་ཚ་རྫོང།","place":"","level":"6","kind":"admin","id":"relation/2743969"},{"lon":89.6779635,"lat":28.8574379,"label":"རྒྱལ་རྩེ་རྫོང།","src":"name:bo","bo":"རྒྱལ་རྩེ་རྫོང།","en":"Gyantse County","name":"江孜县 རྒྱལ་རྩེ་རྫོང།","place":"","level":"6","kind":"admin","id":"relation/2744879"},{"lon":89.340764,"lat":29.8156121,"label":"རྣམ་གླིང་རྫོང།","src":"name:bo","bo":"རྣམ་གླིང་རྫོང།","en":"Namling County","name":"南木林县 རྣམ་གླིང་རྫོང།","place":"","level":"6","kind":"admin","id":"relation/2744619"},{"lon":79.6664023,"lat":31.5722101,"label":"རྩ་མདའ་རྫོང་","src":"name:bo","bo":"རྩ་མདའ་རྫོང་","en":"Tsamda County","name":"札达县 རྩ་མདའ་རྫོང་།","place":"","level":"6","kind":"admin","id":"relation/1997913"},{"lon":81.54459,"lat":30.6092319,"label":"རྩ་མདའ་རྫོང་","src":"name:bo","bo":"རྩ་མདའ་རྫོང་","en":"Purang County","name":"普兰县 སྤུ་ཧྲེང་རྫོང་།","place":"","level":"6","kind":"admin","id":"relation/1997907"},{"lon":97.3905123,"lat":28.8304079,"label":"རྫ་ཡུལ་རྫོང།","src":"name:bo","bo":"རྫ་ཡུལ་རྫོང།","en":"Zayu County","name":"察隅县 རྫ་ཡུལ་རྫོང།","place":"","level":"6","kind":"admin","id":"relation/2734504"},{"lon":92.9715655,"lat":30.7401557,"label":"ལྷ་རི་རྫོང་།","src":"name:bo","bo":"ལྷ་རི་རྫོང་།","en":"Lhari County","name":"嘉黎县 ལྷ་རི་རྫོང།","place":"","level":"6","kind":"admin","id":"relation/2745050"},{"lon":87.7658881,"lat":29.1825772,"label":"ལྷ་རྩེ་རྫོང།","src":"name:bo","bo":"ལྷ་རྩེ་རྫོང།","en":"Lhatsé","name":"拉孜县 ལྷ་རྩེ་རྫོང།","place":"","level":"6","kind":"admin","id":"relation/2744882"},{"lon":91.3860988,"lat":30.1102769,"label":"ལྷུན་གྲུབ་རྫོང","src":"name:bo","bo":"ལྷུན་གྲུབ་རྫོང","en":"Lhünzhub County","name":"林周县 ལྷུན་གྲུབ་རྫོང","place":"","level":"6","kind":"admin","id":"relation/2745216"},{"lon":92.6922088,"lat":28.4562924,"label":"ལྷུན་རྩེ་རྫོང།","src":"name:bo","bo":"ལྷུན་རྩེ་རྫོང།","en":"Lhuntse County","name":"隆子县 ལྷུན་རྩེ་རྫོང།","place":"","level":"6","kind":"admin","id":"relation/2743971"},{"lon":90.8896136,"lat":28.20839,"label":"ལྷོ་བྲག་རྫོང།","src":"name:bo","bo":"ལྷོ་བྲག་རྫོང།","en":"Lhodrak County","name":"洛扎县 ལྷོ་བྲག་རྫོང།","place":"","level":"6","kind":"admin","id":"relation/2743970"},{"lon":95.9102321,"lat":30.679215,"label":"ལྷོ་རོང་རྫོང་།","src":"name:bo","bo":"ལྷོ་རོང་རྫོང་།","en":"Lhorong County","name":"洛隆县 ལྷོ་རོང་རྫོང།","place":"","level":"6","kind":"admin","id":"relation/2734912"},{"lon":88.7869802,"lat":31.1850822,"label":"ཤན་རྩ་རྫོང།","src":"name:bo","bo":"ཤན་རྩ་རྫོང།","en":"Xainza County","name":"申扎县 ཤན་རྩ་རྫོང།","place":"","level":"6","kind":"admin","id":"relation/2745055"},{"lon":85.2689027,"lat":29.3834149,"label":"ས་དགའ་རྫོང།","src":"name:bo","bo":"ས་དགའ་རྫོང།","en":"Saga County","name":"萨嘎县 ས་དགའ་རྫོང།","place":"","level":"6","kind":"admin","id":"relation/2744885"},{"lon":88.3270987,"lat":28.8610623,"label":"ས་སྐྱ་རྫོང།","src":"name:bo","bo":"ས་སྐྱ་རྫོང།","en":"Sa'gya County","name":"萨迦县 ས་སྐྱ་རྫོང།","place":"","level":"6","kind":"admin","id":"relation/2744884"},{"lon":94.2765442,"lat":31.5392298,"label":"སོག་རྫོང་།","src":"name:bo","bo":"སོག་རྫོང་།","en":"Sog County","name":"索县 སོག་རྫོང།","place":"","level":"6","kind":"admin","id":"relation/2745054"},{"lon":85.3043531,"lat":28.7884172,"label":"སྐྱིད་གྲོང་རྫོང་།","src":"name:bo","bo":"སྐྱིད་གྲོང་རྫོང་།","en":"Gyirong County","name":"吉隆县 སྐྱིད་གྲོང་རྫོང།","place":"","level":"6","kind":"admin","id":"relation/2744880"},{"lon":80.2921247,"lat":31.8821875,"label":"སྒར་རྫོང་","src":"name:bo","bo":"སྒར་རྫོང་","en":"Gar County","name":"噶尔县 སྒར་རྫོང་།","place":"","level":"6","kind":"admin","id":"relation/1997909"},{"lon":84.1531843,"lat":33.6714535,"label":"སྒེར་རྩེ་རྫོང་","src":"name:bo","bo":"སྒེར་རྩེ་རྫོང་","en":"Gêrzê County","name":"改则县 སྒེར་རྩེ་རྫོང་།","place":"","level":"6","kind":"admin","id":"relation/1997910"},{"lon":92.7998654,"lat":32.5071874,"label":"སྙན་རོང་རྫོང།","src":"name:bo","bo":"སྙན་རོང་རྫོང།","en":"Nyainrong County","name":"聂荣县 སྙན་རོང་རྫོང།","place":"","level":"6","kind":"admin","id":"relation/2745052"},{"lon":90.1107559,"lat":29.6391902,"label":"སྙེ་མོ་རྫོང།","src":"name:bo","bo":"སྙེ་མོ་རྫོང།","en":"Nyêmo County","name":"尼木县 སྙེ་མོ་རྫོང།","place":"","level":"6","kind":"admin","id":"relation/2745218"},{"lon":91.442449,"lat":29.7532157,"label":"སྟག་རྩེ་ཆུས།","src":"name:bo","bo":"སྟག་རྩེ་ཆུས།","en":"Dagzê District","name":"达孜区 སྟག་རྩེ་ཆུས།","place":"","level":"6","kind":"admin","id":"relation/2745213"},{"lon":95.5106478,"lat":31.7450591,"label":"སྟེང་ཆེན་རྫོང་།","src":"name:bo","bo":"སྟེང་ཆེན་རྫོང་།","en":"Dêngqên County","name":"丁青县 སྟེང་ཆེན་རྫོང།","place":"","level":"6","kind":"admin","id":"relation/2734865"},{"lon":90.8213031,"lat":29.7918982,"label":"སྟོད་ལུང་བདེ་ཆེན་ཆུས།","src":"name:bo","bo":"སྟོད་ལུང་བདེ་ཆེན་ཆུས།","en":"Doilungdêqên District","name":"堆龙德庆区 སྟོད་ལུང་བདེ་ཆེན་ཆུས།","place":"","level":"6","kind":"admin","id":"relation/2745215"},{"lon":90.7138219,"lat":28.7268026,"label":"སྣ་དཀར་རྩེ་རྫོང་།","src":"name:bo","bo":"སྣ་དཀར་རྩེ་རྫོང་།","en":"Nagarzê County","name":"浪卡子县 སྣ་དཀར་རྩེ་རྫོང།","place":"","level":"6","kind":"admin","id":"relation/2743972"},{"lon":91.78408,"lat":29.1638815,"label":"སྣེ་གདོང་ཆུས","src":"name:bo","bo":"སྣེ་གདོང་ཆུས","en":"Nêdong District","name":"乃东区 སྣེ་གདོང་ཆུས།","place":"","level":"6","kind":"admin","id":"relation/2743973"},{"lon":95.3551379,"lat":30.0144929,"label":"སྤོ་མེས་རྫོང","src":"name:bo","bo":"སྤོ་མེས་རྫོང","en":"Bomê County","name":"波密县 སྤོ་མེས།","place":"","level":"6","kind":"admin","id":"relation/2734498"},{"lon":93.8827174,"lat":32.3247646,"label":"སྦྲ་ཆེན་རྫོང།","src":"name:bo","bo":"སྦྲ་ཆེན་རྫོང།","en":"Baqên County","name":"巴青县 སྦྲ་ཆེན་རྫོང།","place":"","level":"6","kind":"admin","id":"relation/2745048"},{"lon":94.167934,"lat":29.2472481,"label":"སྨན་གླིང་གྲོང་ཁྱེར།","src":"name:bo","bo":"སྨན་གླིང་གྲོང་ཁྱེར།","en":"Mainling City","name":"米林市 སྨན་གླིང་གྲོང་ཁྱེར།","place":"","level":"6","kind":"admin","id":"relation/2734500"},{"lon":98.549995,"lat":29.5101044,"label":"སྨར་ཁམས་རྫོང།","src":"name:bo","bo":"སྨར་ཁམས་རྫོང།","en":"Markam County","name":"芒康县 སྨར་ཁམས་རྫོང།","place":"","level":"6","kind":"admin","id":"relation/2734913"},{"lon":91.1213235,"lat":33.838745,"label":"ཨ་མདོ་རྫོང།","src":"name:bo","bo":"ཨ་མདོ་རྫོང།","en":"Amdo County","name":"安多县 ཨ་མདོ་རྫོང།","place":"","level":"6","kind":"admin","id":"relation/2745047"},{"lon":93.2540053,"lat":30.0271614,"label":"ཀོང་པོ་རྒྱ་མདའ་རྫོང།","src":"name:bo","bo":"ཀོང་པོ་རྒྱ་མདའ་རྫོང།","en":"Gongbo'gyamda County","name":"工布江达县 ཀོང་པོ་རྒྱ་མདའ་རྫོང།","place":"county","level":"6","kind":"admin","id":"relation/2734499"},{"lon":93.0084569,"lat":29.0786185,"label":"སྣང་རྫོང་།","src":"name:bo","bo":"སྣང་རྫོང་།","en":"Nang County","name":"朗县 སྣང་རྫོང།","place":"county","level":"6","kind":"admin","id":"relation/2734502"},{"lon":92.003258,"lat":31.1960542,"label":"གསེར་རྙེད་ཆུས","src":"name:bo","bo":"གསེར་རྙེད་ཆུས","en":"Seni District","name":"色尼区 གསེར་རྙེད་ཆུས།","place":"district","level":"6","kind":"admin","id":"relation/2745051"},{"lon":89.3317239,"lat":28.2672305,"label":"ཀ་ལ་ཤང་།","src":"name:bo","bo":"ཀ་ལ་ཤང་།","en":"","name":"嘎拉乡","place":"","level":"8","kind":"admin","id":"relation/12299116"},{"lon":91.153275,"lat":29.6576319,"label":"ཀརྨ་མ་ཀུན་བཟང་","src":"name:bo","bo":"ཀརྨ་མ་ཀུན་བཟང་","en":"Karma Kunzang Subdistrict","name":"嘎玛贡桑街道","place":"","level":"8","kind":"admin","id":"relation/8252869"},{"lon":96.8675233,"lat":31.8993998,"label":"ཀརྨ་ཤང","src":"name:bo","bo":"ཀརྨ་ཤང","en":"Karma Karma township","name":"嘎玛乡","place":"","level":"8","kind":"admin","id":"relation/11813274"},{"lon":95.3969422,"lat":30.739266,"label":"ཀུང་ཡས་གསུམ་མདོ","src":"name:bo","bo":"ཀུང་ཡས་གསུམ་མདོ","en":"Zhungyaisumdo","name":"中亦乡","place":"","level":"8","kind":"admin","id":"relation/11815418"},{"lon":91.1013955,"lat":29.6625064,"label":"ཀུན་བདེ་གླིང་","src":"name:bo","bo":"ཀུན་བདེ་གླིང་","en":"Gündêling Subdistrict","name":"公德林街道","place":"","level":"8","kind":"admin","id":"relation/8252867"},{"lon":80.1672362,"lat":31.9918608,"label":"ཀུན་ས","src":"name:bo","bo":"ཀུན་ས","en":"Günsa Township","name":"昆莎乡","place":"","level":"8","kind":"admin","id":"relation/7697629"},{"lon":93.4695492,"lat":30.8775943,"label":"ཀོ་ཆུང་ཤང་།","src":"name:bo","bo":"ཀོ་ཆུང་ཤང་།","en":"Goqung township","name":"鸽群乡","place":"","level":"8","kind":"admin","id":"relation/12321564"},{"lon":96.7481918,"lat":30.7383271,"label":"ཀོ་ཆེན་ཤང་།","src":"name:bo","bo":"ཀོ་ཆེན་ཤང་།","en":"","name":"郭庆乡","place":"","level":"8","kind":"admin","id":"relation/12346138"},{"lon":84.8235454,"lat":28.7503063,"label":"ཀོ་ཐང་ཤང","src":"name:bo","bo":"ཀོ་ཐང་ཤང","en":"Gungtang Township","name":"贡当乡","place":"","level":"8","kind":"admin","id":"relation/12304387"},{"lon":91.6174855,"lat":30.8107002,"label":"ཀོ་ལུག་གྲོང་རྡལ","src":"name:bo","bo":"ཀོ་ལུག་གྲོང་རྡལ","en":"Golug town","name":"古露镇","place":"","level":"8","kind":"admin","id":"relation/12321547"},{"lon":87.5868441,"lat":28.341088,"label":"ཀོ་ལྕག་ཤང་།","src":"name:bo","bo":"ཀོ་ལྕག་ཤང་།","en":"","name":"郭加乡","place":"","level":"8","kind":"admin","id":"relation/12309341"},{"lon":93.4151932,"lat":29.9102972,"label":"ཀོང་པོ་རྒྱ་མདའ་གྲོང་རྡལ","src":"name:bo","bo":"ཀོང་པོ་རྒྱ་མདའ་གྲོང་རྡལ","en":"Gongbo'gyamda town","name":"工布江达镇","place":"","level":"8","kind":"admin","id":"relation/12339472"},{"lon":91.7904496,"lat":27.9483355,"label":"ཀོང་རི་མོན་པ་མི་རིགས་ཤང","src":"name:bo","bo":"ཀོང་རི་མོན་པ་མི་རིགས་ཤང","en":"Gongri Township","name":"贡日门巴民族乡","place":"","level":"8","kind":"admin","id":"relation/7700676"},{"lon":97.3816566,"lat":29.4727971,"label":"ཀྲུང་གླིང་ཁ་ཤང","src":"name:bo","bo":"ཀྲུང་གླིང་ཁ་ཤང","en":"Trunglingkha township","name":"中林卡乡","place":"","level":"8","kind":"admin","id":"relation/12346173"},{"lon":85.1780107,"lat":28.9736731,"label":"ཀྲེ་པ་ཤང","src":"name:bo","bo":"ཀྲེ་པ་ཤང","en":"Trepa Township","name":"折巴乡","place":"","level":"8","kind":"admin","id":"relation/12304388"},{"lon":94.7688431,"lat":29.8997911,"label":"ཀླུ་ནང་གྲོང་རྡལ།","src":"name:bo","bo":"ཀླུ་ནང་གྲོང་རྡལ།","en":"","name":"鲁朗镇","place":"","level":"8","kind":"admin","id":"relation/12339456"},{"lon":91.5986884,"lat":28.014717,"label":"ཁ་ཆུ","src":"name:bo","bo":"ཁ་ཆུ","en":"Khachu Township","name":"库局乡","place":"","level":"8","kind":"admin","id":"relation/7700763"},{"lon":90.396458,"lat":29.2343153,"label":"ཁ་དབྲག","src":"name:bo","bo":"ཁ་དབྲག","en":"Karag","name":"卡热乡","place":"","level":"8","kind":"admin","id":"relation/11783399"},{"lon":97.2564256,"lat":30.9244348,"label":"ཁ་རུབ་གྲོང་རྡལ","src":"name:bo","bo":"ཁ་རུབ་གྲོང་རྡལ","en":"Karub town","name":"卡若镇","place":"","level":"8","kind":"admin","id":"relation/12346172"},{"lon":90.0742242,"lat":29.2739597,"label":"ཁང་གཞུང་ཤང་།","src":"name:bo","bo":"ཁང་གཞུང་ཤང་།","en":"","name":"康雄乡","place":"","level":"8","kind":"admin","id":"relation/12312550"},{"lon":96.0837442,"lat":30.7598094,"label":"ཁང་གསར་གྲོང་རྡལ","src":"name:bo","bo":"ཁང་གསར་གྲོང་རྡལ","en":"Kangsar town","name":"康沙镇","place":"","level":"8","kind":"admin","id":"relation/12346134"},{"lon":89.7037982,"lat":28.4815716,"label":"ཁང་དམར་གྲོང་རྡལ།","src":"name:bo","bo":"ཁང་དམར་གྲོང་རྡལ།","en":"","name":"康马镇","place":"","level":"8","kind":"admin","id":"relation/12299111"},{"lon":96.4176546,"lat":30.0616297,"label":"ཁང་ཡུལ་ཤང","src":"name:bo","bo":"ཁང་ཡུལ་ཤང","en":"Kangyü township","name":"康玉乡","place":"","level":"8","kind":"admin","id":"relation/12339487"},{"lon":88.9506599,"lat":27.7472573,"label":"ཁམ་བུ་","src":"name:bo","bo":"ཁམ་བུ་","en":"Khambu","name":"康布乡 ཁམ་བུ་","place":"","level":"8","kind":"admin","id":"relation/4052303"},{"lon":86.045143,"lat":30.4810408,"label":"ཁུག་ལུང་ཤང་།","src":"name:bo","bo":"ཁུག་ལུང་ཤང་།","en":"","name":"孔隆乡","place":"","level":"8","kind":"admin","id":"relation/12311232"},{"lon":98.814509,"lat":30.8889113,"label":"ཁེར་རི","src":"name:bo","bo":"ཁེར་རི","en":"Kêrri","name":"克日乡","place":"","level":"8","kind":"admin","id":"relation/12346214"},{"lon":91.1407071,"lat":29.2043991,"label":"ཁྱིམ་བཞི་ཤང","src":"name:bo","bo":"ཁྱིམ་བཞི་ཤང","en":"Kyimxi township","name":"克西乡","place":"","level":"8","kind":"admin","id":"relation/19861843"},{"lon":88.029168,"lat":28.08641,"label":"ཁྱུང་རྩེ་ཤང་།","src":"name:bo","bo":"ཁྱུང་རྩེ་ཤང་།","en":"","name":"琼孜乡","place":"","level":"8","kind":"admin","id":"relation/12309339"},{"lon":96.1302027,"lat":31.447575,"label":"ཁྲ་མོ་གླིང་ཤང","src":"name:bo","bo":"ཁྲ་མོ་གླིང་ཤང","en":"Chamoling township","name":"长毛岭乡","place":"","level":"8","kind":"admin","id":"relation/12346160"},{"lon":93.3959825,"lat":32.7802288,"label":"ཁྲ་འདམ་","src":"name:bo","bo":"ཁྲ་འདམ་","en":"Trandam","name":"查当乡","place":"","level":"8","kind":"admin","id":"relation/8244847"},{"lon":91.7597931,"lat":29.1609163,"label":"ཁྲ་འབྲུག་གྲོང་རྡལ","src":"name:bo","bo":"ཁྲ་འབྲུག་གྲོང་རྡལ","en":"Changzhug town","name":"昌珠镇","place":"","level":"8","kind":"admin","id":"relation/12300353"},{"lon":91.6536751,"lat":31.8464192,"label":"ཁྲ་རིང་གྲོང་རྡལ།","src":"name:bo","bo":"ཁྲ་རིང་གྲོང་རྡལ།","en":"Zharen town","name":"扎仁镇","place":"","level":"8","kind":"admin","id":"relation/8242618"},{"lon":89.7352268,"lat":28.8309743,"label":"ཁྲ་རིང་ཤང་།","src":"name:bo","bo":"ཁྲ་རིང་ཤང་།","en":"","name":"车仁乡","place":"","level":"8","kind":"admin","id":"relation/12302942"},{"lon":95.7564541,"lat":29.8166327,"label":"ཁྲབ་རྨོག་གྲོང་རྡལ","src":"name:bo","bo":"ཁྲབ་རྨོག་གྲོང་རྡལ","en":"Tramog town","name":"扎木镇","place":"","level":"8","kind":"admin","id":"relation/12339483"},{"lon":91.5766337,"lat":28.7021937,"label":"ཁྲི་གུ་གྲོང་རྡལ","src":"name:bo","bo":"ཁྲི་གུ་གྲོང་རྡལ","en":"Chigu town","name":"哲古镇","place":"","level":"8","kind":"admin","id":"relation/12207738"},{"lon":95.0566248,"lat":31.4831294,"label":"ཁྲི་རྡོ་གྲོང་རྡལ","src":"name:bo","bo":"ཁྲི་རྡོ་གྲོང་རྡལ","en":"Chido town","name":"尺犊镇","place":"","level":"8","kind":"admin","id":"relation/12341715"},{"lon":94.0671905,"lat":31.5687841,"label":"ཁྲི་རྡོ་ཤང་།","src":"name:bo","bo":"ཁྲི་རྡོ་ཤང་།","en":"Thrido township","name":"赤多乡","place":"","level":"8","kind":"admin","id":"relation/12321825"},{"lon":97.1698612,"lat":31.1588179,"label":"ཁྲེང་ཀོན་གྲོང་རྡལ","src":"name:bo","bo":"ཁྲེང་ཀོན་གྲོང་རྡལ","en":"Chengguan","name":"城关镇","place":"","level":"8","kind":"admin","id":"relation/12346171"},{"lon":92.504949,"lat":32.3609332,"label":"ཁྲོ་ལུང་","src":"name:bo","bo":"ཁྲོ་ལུང་","en":"Trolung","name":"桑荣乡","place":"","level":"8","kind":"admin","id":"relation/8244868"},{"lon":89.4446653,"lat":28.828916,"label":"གངས་ཁྲོ་ཤང་།","src":"name:bo","bo":"གངས་ཁྲོ་ཤང་།","en":"","name":"康卓乡","place":"","level":"8","kind":"admin","id":"relation/12302937"},{"lon":96.0633256,"lat":31.6381888,"label":"གངས་གཟེ་ཤང","src":"name:bo","bo":"གངས་གཟེ་ཤང","en":"Kangda township","name":"岗色乡","place":"","level":"8","kind":"admin","id":"relation/12346163"},{"lon":93.6869913,"lat":32.5837925,"label":"གངས་ཆེན་ཤང་།","src":"name:bo","bo":"གངས་ཆེན་ཤང་།","en":"Gangchen township","name":"岗切乡","place":"","level":"8","kind":"admin","id":"relation/8244976"},{"lon":92.3058132,"lat":32.0597242,"label":"གཉན་རོང་","src":"name:bo","bo":"གཉན་རོང་","en":"Nyainrong","name":"聂荣镇","place":"","level":"8","kind":"admin","id":"relation/8244830"},{"lon":86.0365307,"lat":28.231682,"label":"གཉའ་ལམ་གྲོང་བརྡལ","src":"name:bo","bo":"གཉའ་ལམ་གྲོང་བརྡལ","en":"Nyalam town","name":"聂拉木镇","place":"","level":"8","kind":"admin","id":"relation/11767372"},{"lon":94.7457323,"lat":29.4250603,"label":"གཏམ་སྙན་ཤང","src":"name:bo","bo":"གཏམ་སྙན་ཤང","en":"Tamnyen township","name":"丹娘乡","place":"","level":"8","kind":"admin","id":"relation/11798597"},{"lon":95.338781,"lat":31.2389553,"label":"གཏམ་སྟོད་ཤང","src":"name:bo","bo":"གཏམ་སྟོད་ཤང","en":"Damdoi township","name":"当堆乡","place":"","level":"8","kind":"admin","id":"relation/12341718"},{"lon":88.0893272,"lat":28.3497127,"label":"གཏིང་སྐྱེས་ཤང་།","src":"name:bo","bo":"གཏིང་སྐྱེས་ཤང་།","en":"","name":"定结乡","place":"","level":"8","kind":"admin","id":"relation/12309343"},{"lon":97.9838141,"lat":31.9285793,"label":"གཏེར་སྟོན་ཤང་།","src":"name:bo","bo":"གཏེར་སྟོན་ཤང་།","en":"","name":"德登乡","place":"","level":"8","kind":"admin","id":"relation/12348092"},{"lon":87.2682866,"lat":29.3365852,"label":"གད་ཁ་གྲོང་རྡལ།","src":"name:bo","bo":"གད་ཁ་གྲོང་རྡལ།","en":"","name":"卡嘎镇","place":"","level":"8","kind":"admin","id":"relation/12311241"},{"lon":86.7792788,"lat":28.7988553,"label":"གད་དམར་ཤང","src":"name:bo","bo":"གད་དམར་ཤང","en":"Kaimar township","name":"克玛乡","place":"","level":"8","kind":"admin","id":"relation/12309335"},{"lon":96.0292239,"lat":30.9565956,"label":"གདགས་རོང་ཤང","src":"name:bo","bo":"གདགས་རོང་ཤང","en":"Dakrong township","name":"达龙乡","place":"","level":"8","kind":"admin","id":"relation/12346133"},{"lon":88.8506197,"lat":29.4837926,"label":"གདོང་དཀར","src":"name:bo","bo":"གདོང་དཀར","en":"Donggar","name":"东嘎乡","place":"","level":"8","kind":"admin","id":"relation/7700022"},{"lon":91.0000948,"lat":29.6723149,"label":"གདོང་དཀར","src":"name:bo","bo":"གདོང་དཀར","en":"Donggar Subdistrict","name":"东嘎街道","place":"","level":"8","kind":"admin","id":"relation/11822092"},{"lon":90.8452605,"lat":29.4823513,"label":"གནམ་","src":"name:bo","bo":"གནམ་","en":"Nam","name":"南木乡","place":"","level":"8","kind":"admin","id":"relation/11820847"},{"lon":90.9926518,"lat":30.7413642,"label":"གནམ་མཚོ་ཤང་།","src":"name:bo","bo":"གནམ་མཚོ་ཤང་།","en":"","name":"纳木湖乡","place":"","level":"8","kind":"admin","id":"relation/12338730"},{"lon":89.664874,"lat":28.7829451,"label":"གནམ་རྙིང་","src":"name:bo","bo":"གནམ་རྙིང་","en":"Namnying","name":"南尼乡","place":"","level":"8","kind":"admin","id":"relation/11771111"},{"lon":90.8809447,"lat":29.6319228,"label":"གནས་ཆུང་","src":"name:bo","bo":"གནས་ཆུང་","en":"Naiqung Subdistrict","name":"乃琼街道","place":"","level":"8","kind":"admin","id":"relation/11822090"},{"lon":91.3298434,"lat":28.3133684,"label":"གནས་བཞི་ཤང་།","src":"name:bo","bo":"གནས་བཞི་ཤང་།","en":"Naixi township","name":"乃西乡","place":"","level":"8","kind":"admin","id":"relation/12207736"},{"lon":94.1553258,"lat":29.034214,"label":"གནས་ཡུལ་ལྷོ་པ་མི་རིགས་ཤང","src":"name:bo","bo":"གནས་ཡུལ་ལྷོ་པ་མི་རིགས་ཤང","en":"Naiyü Lhoba Ethnic Township","name":"南伊珞巴民族乡","place":"","level":"8","kind":"admin","id":"relation/12339461"},{"lon":93.8158091,"lat":28.991342,"label":"གནས་ལུང་ཤང","src":"name:bo","bo":"གནས་ལུང་ཤང","en":"Nelung township","name":"里龙乡","place":"","level":"8","kind":"admin","id":"relation/12339460"},{"lon":88.5621945,"lat":28.1626219,"label":"གམ་པ་གྲོང་རྡལ།","src":"name:bo","bo":"གམ་པ་གྲོང་རྡལ།","en":"Kamba Township","name":"岗巴镇","place":"","level":"8","kind":"admin","id":"relation/12302527"},{"lon":89.5212364,"lat":28.5601907,"label":"གམ་རུ་ཤང་།","src":"name:bo","bo":"གམ་རུ་ཤང་།","en":"","name":"康如乡","place":"","level":"8","kind":"admin","id":"relation/12299112"},{"lon":89.5686961,"lat":28.9980358,"label":"གཙང་ཁ་ཤང་།","src":"name:bo","bo":"གཙང་ཁ་ཤང་།","en":"","name":"藏改乡","place":"","level":"8","kind":"admin","id":"relation/12302945"},{"lon":98.2707204,"lat":30.4351894,"label":"གཙང་གསར་ཤང","src":"name:bo","bo":"གཙང་གསར་ཤང","en":"Zangsar","name":"宗沙乡","place":"","level":"8","kind":"admin","id":"relation/12346197"},{"lon":91.545691,"lat":29.7537866,"label":"གཙང་ལྟོགས་ཤང་།","src":"name:bo","bo":"གཙང་ལྟོགས་ཤང་།","en":"","name":"章多乡","place":"","level":"8","kind":"admin","id":"relation/12338747"},{"lon":98.7136455,"lat":29.9940936,"label":"གཙང་ཤོད།","src":"name:bo","bo":"གཙང་ཤོད།","en":"Zangxoi","name":"宗西乡","place":"","level":"8","kind":"admin","id":"relation/12346194"},{"lon":80.7692526,"lat":32.1641506,"label":"གཙོ་ཚོ་ཤང་།","src":"name:bo","bo":"གཙོ་ཚོ་ཤང་།","en":"Zoco township","name":"左左乡","place":"","level":"8","kind":"admin","id":"relation/7697628"},{"lon":90.3188101,"lat":29.553539,"label":"གཞུ་སྨད་ཤང་།","src":"name:bo","bo":"གཞུ་སྨད་ཤང་།","en":"","name":"续迈乡","place":"","level":"8","kind":"admin","id":"relation/12338723"},{"lon":82.0554255,"lat":31.9652255,"label":"གཞུང་པ","src":"name:bo","bo":"གཞུང་པ","en":"Xungba","name":"雄巴乡","place":"","level":"8","kind":"admin","id":"relation/7697924"},{"lon":86.9623436,"lat":29.6584115,"label":"གཞུང་པ་ཤང་།","src":"name:bo","bo":"གཞུང་པ་ཤང་།","en":"","name":"雄巴乡","place":"","level":"8","kind":"admin","id":"relation/12311239"},{"lon":84.8281482,"lat":29.319444,"label":"གཞུང་རུ་ཤང","src":"name:bo","bo":"གཞུང་རུ་ཤང","en":"Xungru township","name":"雄如乡","place":"","level":"8","kind":"admin","id":"relation/12304384"},{"lon":88.9777049,"lat":31.7262155,"label":"གཞུང་སྨད་ཤང་།","src":"name:bo","bo":"གཞུང་སྨད་ཤང་།","en":"","name":"雄梅镇","place":"","level":"8","kind":"admin","id":"relation/12321529"},{"lon":87.9265057,"lat":28.6108867,"label":"གཞོང་སྨད་ཤང་།","src":"name:bo","bo":"གཞོང་སྨད་ཤང་།","en":"","name":"雄麦乡","place":"","level":"8","kind":"admin","id":"relation/12311855"},{"lon":87.6989181,"lat":28.2015704,"label":"གཟར་ཤང་།","src":"name:bo","bo":"གཟར་ཤང་།","en":"","name":"萨尔乡","place":"","level":"8","kind":"admin","id":"relation/12309340"},{"lon":93.7874086,"lat":31.8362178,"label":"གཡག་ལ་གྲོང་རྡལ།","src":"name:bo","bo":"གཡག་ལ་གྲོང་རྡལ།","en":"Yakla town","name":"亚拉镇","place":"","level":"8","kind":"admin","id":"relation/12321821"},{"lon":93.6109352,"lat":31.1462107,"label":"གཡང་ཤོད་ཤང་།","src":"name:bo","bo":"གཡང་ཤོད་ཤང་།","en":"","name":"羊秀乡","place":"","level":"8","kind":"admin","id":"relation/12321565"},{"lon":96.5652301,"lat":31.5695774,"label":"གཡས་རི་ཤང་།","src":"name:bo","bo":"གཡས་རི་ཤང་།","en":"","name":"伊日乡","place":"","level":"8","kind":"admin","id":"relation/12346158"},{"lon":96.3796212,"lat":29.6347106,"label":"གཡུ་ཕུག་ཤང","src":"name:bo","bo":"གཡུ་ཕུག་ཤང","en":"Yupug township","name":"玉普乡","place":"","level":"8","kind":"admin","id":"relation/12339486"},{"lon":92.9734379,"lat":32.898186,"label":"གཡུ་མཆོག།","src":"name:bo","bo":"གཡུ་མཆོག།","en":"Yongqu Township","name":"永曲乡 གཡུ་མཆོག།","place":"","level":"8","kind":"admin","id":"relation/4538149"},{"lon":95.3898076,"lat":30.3251005,"label":"གཡུ་ཤུལ་ཤང","src":"name:bo","bo":"གཡུ་ཤུལ་ཤང","en":"Yuxü township","name":"玉许乡","place":"","level":"8","kind":"admin","id":"relation/12339481"},{"lon":93.7757409,"lat":31.4979427,"label":"གཤམ་ཆུ་ཤང་།","src":"name:bo","bo":"གཤམ་ཆུ་ཤང་།","en":"","name":"香曲乡","place":"","level":"8","kind":"admin","id":"relation/12321567"},{"lon":88.4604953,"lat":29.0124302,"label":"གཤོང་མ་ཤང་།","src":"name:bo","bo":"གཤོང་མ་ཤང་།","en":"","name":"雄玛乡","place":"","level":"8","kind":"admin","id":"relation/12311863"},{"lon":92.837449,"lat":28.612147,"label":"གསང་སྔགས་ཆོས་གླིང་ཤང་།","src":"name:bo","bo":"གསང་སྔགས་ཆོས་གླིང་ཤང་།","en":"","name":"三安曲林乡","place":"","level":"8","kind":"admin","id":"relation/12210068"},{"lon":91.2731368,"lat":30.018144,"label":"གསུམ་འཕྲིན་ཤང་།","src":"name:bo","bo":"གསུམ་འཕྲིན་ཤང་།","en":"","name":"松盘乡","place":"","level":"8","kind":"admin","id":"relation/12338740"},{"lon":96.0843303,"lat":29.7566318,"label":"གསུམ་འཛོམས་གྲོང་རྡལ","src":"name:bo","bo":"གསུམ་འཛོམས་གྲོང་རྡལ","en":"Sumzom town","name":"松宗镇","place":"","level":"8","kind":"admin","id":"relation/12339484"},{"lon":94.7268558,"lat":31.4412791,"label":"གསེར་ཁྲམ་ཤང་།","src":"name:bo","bo":"གསེར་ཁྲམ་ཤང་།","en":"Sêrcham township","name":"西昌乡","place":"","level":"8","kind":"admin","id":"relation/12321829"},{"lon":92.8648435,"lat":31.3276394,"label":"གསེར་གཞོང་","src":"name:bo","bo":"གསེར་གཞོང་","en":"Sêrxong","name":"色雄乡","place":"","level":"8","kind":"admin","id":"relation/12321555"},{"lon":92.0967098,"lat":31.9934714,"label":"གསེར་ཆེན་","src":"name:bo","bo":"གསེར་ཆེན་","en":"Serchen","name":"色庆乡","place":"","level":"8","kind":"admin","id":"relation/8244870"},{"lon":98.8426037,"lat":30.6476676,"label":"གསེར་ཐང་ཤང","src":"name:bo","bo":"གསེར་ཐང་ཤང","en":"Sêrtang township","name":"沙东乡","place":"","level":"8","kind":"admin","id":"relation/12346211"},{"lon":91.1231356,"lat":30.5141436,"label":"གུང་ཐང་ཤང་།","src":"name:bo","bo":"གུང་ཐང་ཤང་།","en":"","name":"公塘乡","place":"","level":"8","kind":"admin","id":"relation/12338732"},{"lon":88.6499681,"lat":28.5844161,"label":"གུང་མ་ཤང་།","src":"name:bo","bo":"གུང་མ་ཤང་།","en":"","name":"孔玛乡","place":"","level":"8","kind":"admin","id":"relation/12302529"},{"lon":91.7726134,"lat":29.7947323,"label":"གོང་དཀར་གྲོང་རྡལ།","src":"name:bo","bo":"གོང་དཀར་གྲོང་རྡལ།","en":"","name":"工卡镇","place":"","level":"8","kind":"admin","id":"relation/12338748"},{"lon":95.0355976,"lat":31.8277716,"label":"གྭ་ངད་ཤང","src":"name:bo","bo":"གྭ་ངད་ཤང","en":"Gangé township","name":"甘岩乡","place":"","level":"8","kind":"admin","id":"relation/12341713"},{"lon":94.8992363,"lat":32.0381887,"label":"གྭ་ཐ་ཤང","src":"name:bo","bo":"གྭ་ཐ་ཤང","en":"Kata township","name":"嘎塔乡","place":"","level":"8","kind":"admin","id":"relation/12341711"},{"lon":96.1246786,"lat":31.218794,"label":"གྱང་སྔོན་ཤང","src":"name:bo","bo":"གྱང་སྔོན་ཤང","en":"Gyangngön township","name":"觉恩乡","place":"","level":"8","kind":"admin","id":"relation/12341722"},{"lon":85.9797851,"lat":29.5892726,"label":"གྱེ་རགས་ཤང་།","src":"name:bo","bo":"གྱེ་རགས་ཤང་།","en":"","name":"切热乡","place":"","level":"8","kind":"admin","id":"relation/12311235"},{"lon":91.2785779,"lat":29.2119805,"label":"གྲ་ཐང་གྲོང་རྡལ","src":"name:bo","bo":"གྲ་ཐང་གྲོང་རྡལ","en":"Chatang town","name":"扎塘镇","place":"","level":"8","kind":"admin","id":"relation/11785331"},{"lon":91.4461428,"lat":29.1579292,"label":"གྲ་ཕྱི་ཤང","src":"name:bo","bo":"གྲ་ཕྱི་ཤང","en":"Chaqi township","name":"扎其乡","place":"","level":"8","kind":"admin","id":"relation/11785333"},{"lon":91.138976,"lat":29.671309,"label":"གྲ་བཞི","src":"name:bo","bo":"གྲ་བཞི","en":"Chabxi Subdistrict","name":"扎细街道","place":"","level":"8","kind":"admin","id":"relation/8252868"},{"lon":89.9705397,"lat":29.1522334,"label":"གྲགས་པ་ཤང་།","src":"name:bo","bo":"གྲགས་པ་ཤང་།","en":"","name":"查巴乡","place":"","level":"8","kind":"admin","id":"relation/12312547"},{"lon":88.328769,"lat":28.11701,"label":"གྲང་ལུང་ཤང་།","src":"name:bo","bo":"གྲང་ལུང་ཤང་།","en":"Chonglong Township","name":"昌龙乡","place":"","level":"8","kind":"admin","id":"relation/12302526"},{"lon":91.017748,"lat":28.9682337,"label":"གྲམ་མདའ་ཤང","src":"name:bo","bo":"གྲམ་མདའ་ཤང","en":"Chamda township","name":"张达乡","place":"","level":"8","kind":"admin","id":"relation/12300343"},{"lon":87.5296619,"lat":28.6333039,"label":"གྲམ་མཚ","src":"name:bo","bo":"གྲམ་མཚ","en":"Chamco","name":"长所乡","place":"","level":"8","kind":"admin","id":"relation/12309330"},{"lon":87.4048092,"lat":29.0822114,"label":"གྲའུ་ཤང་།","src":"name:bo","bo":"གྲའུ་ཤང་།","en":"","name":"查务乡","place":"","level":"8","kind":"admin","id":"relation/12311874"},{"lon":98.9073815,"lat":29.886286,"label":"གྲུ་བ་ནང","src":"name:bo","bo":"གྲུ་བ་ནང","en":"Chubalung","name":"朱巴龙乡","place":"","level":"8","kind":"admin","id":"relation/12346193"},{"lon":88.596643,"lat":29.8139958,"label":"གྲུ་སྒྲིག་ཤང་།","src":"name:bo","bo":"གྲུ་སྒྲིག་ཤང་།","en":"","name":"春哲乡","place":"","level":"8","kind":"admin","id":"relation/12312288"},{"lon":87.8025641,"lat":30.9292237,"label":"གྲོ་བ་ཤང","src":"name:bo","bo":"གྲོ་བ་ཤང","en":"Drowa township","name":"卓瓦乡","place":"","level":"8","kind":"admin","id":"relation/12321516"},{"lon":89.0115262,"lat":27.5805476,"label":"གྲོ་མོ་སྟོད་ཤང","src":"name:bo","bo":"གྲོ་མོ་སྟོད་ཤང","en":"Shangyadong","name":"上亚东乡","place":"","level":"8","kind":"admin","id":"relation/4052279"},{"lon":88.9856314,"lat":27.368377,"label":"གྲོ་མོ་སྨད་ཤང","src":"name:bo","bo":"གྲོ་མོ་སྨད་ཤང","en":"Xiayadong Township","name":"下亚东乡","place":"","level":"8","kind":"admin","id":"relation/4052259"},{"lon":93.2891471,"lat":29.6727251,"label":"གྲོང་གསར་ཤང","src":"name:bo","bo":"གྲོང་གསར་ཤང","en":"Chongsar township","name":"仲萨乡","place":"","level":"8","kind":"admin","id":"relation/12339470"},{"lon":88.8453038,"lat":29.2497541,"label":"གྲོང་ནུམ་སྡེ་ཁུལ།","src":"name:bo","bo":"གྲོང་ནུམ་སྡེ་ཁུལ།","en":"","name":"城西街道","place":"","level":"8","kind":"admin","id":"relation/14011764"},{"lon":88.8545501,"lat":29.2934428,"label":"གྲོང་བྱང་དོན་གཅོད།","src":"name:bo","bo":"གྲོང་བྱང་དོན་གཅོད།","en":"Chengbei Subdistrict","name":"城北街道","place":"","level":"8","kind":"admin","id":"relation/14011763"},{"lon":92.8488997,"lat":29.0008353,"label":"གྲོང་མདའ་གྲོང་རྡལ","src":"name:bo","bo":"གྲོང་མདའ་གྲོང་རྡལ","en":"Chongda town","name":"仲达镇","place":"","level":"8","kind":"admin","id":"relation/12339465"},{"lon":88.8912293,"lat":29.2515957,"label":"གྲོང་ལྷོ་དོན་གཅོད།","src":"name:bo","bo":"གྲོང་ལྷོ་དོན་གཅོད།","en":"Chengnan Subdistrict","name":"城南街道","place":"","level":"8","kind":"admin","id":"relation/7699977"},{"lon":88.9210438,"lat":29.3014656,"label":"གྲོང་ཤར་སྡེ་ཁུལ།","src":"name:bo","bo":"གྲོང་ཤར་སྡེ་ཁུལ།","en":"Chengdong Subdistrict","name":"城东街道","place":"","level":"8","kind":"admin","id":"relation/7699978"},{"lon":97.0608213,"lat":30.0547436,"label":"གླ་སྐེ","src":"name:bo","bo":"གླ་སྐེ","en":"Lagê township","name":"拉根乡","place":"","level":"8","kind":"admin","id":"relation/12346149"},{"lon":98.8575514,"lat":30.7209954,"label":"གླང་སྨད་ཤང","src":"name:bo","bo":"གླང་སྨད་ཤང","en":"Langmai township","name":"罗麦乡","place":"","level":"8","kind":"admin","id":"relation/12346212"},{"lon":97.1595587,"lat":29.8836049,"label":"གླིང་ཁ་","src":"name:bo","bo":"གླིང་ཁ་","en":"Lingka township","name":"林卡乡","place":"","level":"8","kind":"admin","id":"relation/12346151"},{"lon":92.5407103,"lat":30.9715039,"label":"གླིང་མཐིལ་ཤང་།","src":"name:bo","bo":"གླིང་མཐིལ་ཤང་།","en":"Lingti township","name":"林堤乡","place":"","level":"8","kind":"admin","id":"relation/12321560"},{"lon":92.6918219,"lat":29.0275015,"label":"གླིང་མདའ","src":"name:bo","bo":"གླིང་མདའ","en":"Lingda","name":"岭达乡","place":"","level":"8","kind":"admin","id":"relation/11796509"},{"lon":91.5246216,"lat":30.1193578,"label":"ངར་ནང་ཤང་།པ","src":"name:bo","bo":"ངར་ནང་ཤང་།པ","en":"","name":"阿朗乡","place":"","level":"8","kind":"admin","id":"relation/12338742"},{"lon":92.5621877,"lat":29.2339663,"label":"ངར་རབ་གྲོང་རྡལ","src":"name:bo","bo":"ངར་རབ་གྲོང་རྡལ","en":"Ngarrab town","name":"安绕镇","place":"","level":"8","kind":"admin","id":"relation/12300369"},{"lon":93.1939332,"lat":31.6915194,"label":"ཆགས་རྩེ་ཤང་།","src":"name:bo","bo":"ཆགས་རྩེ་ཤང་།","en":"","name":"恰则乡","place":"","level":"8","kind":"admin","id":"relation/12321571"},{"lon":88.2869701,"lat":29.484581,"label":"ཆབ་ཁ་གྲོང་རྡལ།","src":"name:bo","bo":"ཆབ་ཁ་གྲོང་རྡལ།","en":"","name":"卡嘎镇","place":"","level":"8","kind":"admin","id":"relation/12312292"},{"lon":94.4891922,"lat":29.339636,"label":"ཆབ་ནག་ཤང","src":"name:bo","bo":"ཆབ་ནག་ཤང","en":"Qabnag township","name":"羌纳乡","place":"","level":"8","kind":"admin","id":"relation/11798596"},{"lon":97.8907887,"lat":31.4016911,"label":"ཆུ་གཉེས་མདོ","src":"name:bo","bo":"ཆུ་གཉེས་མདོ","en":"Qu'nyido township","name":"青泥洞乡","place":"","level":"8","kind":"admin","id":"relation/12348098"},{"lon":92.2166316,"lat":29.1351822,"label":"ཆུ་གསུམ་གྲོང་རྡལ","src":"name:bo","bo":"ཆུ་གསུམ་གྲོང་རྡལ","en":"Qusum town","name":"曲松镇","place":"","level":"8","kind":"admin","id":"relation/12300366"},{"lon":79.278116,"lat":32.1842734,"label":"ཆུ་གསུམ་ཤང","src":"name:bo","bo":"ཆུ་གསུམ་ཤང","en":"Qusum township","name":"曲松乡","place":"","level":"8","kind":"admin","id":"relation/7697524"},{"lon":87.2694174,"lat":28.1420318,"label":"ཆུ་ཐང","src":"name:bo","bo":"ཆུ་ཐང","en":"Qutang","name":"曲当镇","place":"","level":"8","kind":"admin","id":"relation/12309327"},{"lon":87.415658,"lat":29.4609436,"label":"ཆུ་དབར་ཤང་།","src":"name:bo","bo":"ཆུ་དབར་ཤང་།","en":"","name":"秋窝乡","place":"","level":"8","kind":"admin","id":"relation/12311244"},{"lon":91.670351,"lat":28.2336408,"label":"ཆུ་དྲོ་མོ་ཤང","src":"name:bo","bo":"ཆུ་དྲོ་མོ་ཤང","en":"Chudromo Township","name":"曲卓木乡","place":"","level":"8","kind":"admin","id":"relation/7700762"},{"lon":89.1733292,"lat":29.0608263,"label":"ཆུ་ནུབ་ཤང་།","src":"name:bo","bo":"ཆུ་ནུབ་ཤང་།","en":"","name":"曲奴乡","place":"","level":"8","kind":"admin","id":"relation/12303080"},{"lon":93.0744646,"lat":28.692968,"label":"ཆུ་བཟང་གྲོང་རྡལ།","src":"name:bo","bo":"ཆུ་བཟང་གྲོང་རྡལ།","en":"Chosam","name":"曲桑镇","place":"","level":"8","kind":"admin","id":"relation/18774073"},{"lon":87.7065578,"lat":29.305199,"label":"ཆུ་མ་ཤང་།","src":"name:bo","bo":"ཆུ་མ་ཤང་།","en":"","name":"曲玛乡","place":"","level":"8","kind":"admin","id":"relation/12311871"},{"lon":95.7165643,"lat":30.2600251,"label":"ཆུ་མདོ་གྲོང་རྡལ","src":"name:bo","bo":"ཆུ་མདོ་གྲོང་རྡལ","en":"Chumdo town","name":"倾多镇","place":"","level":"8","kind":"admin","id":"relation/12339482"},{"lon":92.2143588,"lat":28.8144514,"label":"ཆུ་མདོ་རྒྱང་ཤང","src":"name:bo","bo":"ཆུ་མདོ་རྒྱང་ཤང","en":"Chumdokyang township","name":"邱多江乡","place":"","level":"8","kind":"admin","id":"relation/12300356"},{"lon":88.7188053,"lat":29.1511025,"label":"ཆུ་མིག","src":"name:bo","bo":"ཆུ་མིག","en":"Qumig","name":"曲美乡","place":"","level":"8","kind":"admin","id":"relation/7699982"},{"lon":98.5681651,"lat":29.215562,"label":"ཆུ་ཚན་ཁ།","src":"name:bo","bo":"ཆུ་ཚན་ཁ།","en":"Chutsenkha","name":"曲孜卡乡","place":"","level":"8","kind":"admin","id":"relation/12346188"},{"lon":87.3566685,"lat":28.6069889,"label":"ཆུ་ལྷོ་","src":"name:bo","bo":"ཆུ་ལྷོ་","en":"Qulho","name":"曲洛乡","place":"","level":"8","kind":"admin","id":"relation/12309329"},{"lon":85.5582187,"lat":30.3659698,"label":"ཆུ་ལྷོ་ཤང","src":"name:bo","bo":"ཆུ་ལྷོ་ཤང","en":"Qulho township","name":"曲洛乡","place":"","level":"8","kind":"admin","id":"relation/7698298"},{"lon":87.6438536,"lat":29.0514312,"label":"ཆུ་ཤར་གྲོང་རྡང།","src":"name:bo","bo":"ཆུ་ཤར་གྲོང་རྡང།","en":"","name":"曲下镇","place":"","level":"8","kind":"admin","id":"relation/12311875"},{"lon":90.7295021,"lat":29.4637725,"label":"ཆུ་ཤུར","src":"name:bo","bo":"ཆུ་ཤུར","en":"Qüxü","name":"曲水镇","place":"","level":"8","kind":"admin","id":"relation/11820846"},{"lon":88.9219961,"lat":29.6497751,"label":"ཆུམ","src":"name:bo","bo":"ཆུམ","en":"Qum","name":"秋木乡","place":"","level":"8","kind":"admin","id":"relation/7700100"},{"lon":87.8866297,"lat":28.4949308,"label":"ཆོབ་ཤང་།","src":"name:bo","bo":"ཆོབ་ཤང་།","en":"","name":"确布乡","place":"","level":"8","kind":"admin","id":"relation/12309344"},{"lon":84.266516,"lat":29.9863694,"label":"ཆོས་འཁོར་ཤང","src":"name:bo","bo":"ཆོས་འཁོར་ཤང","en":"Qonkor township","name":"琼果乡","place":"","level":"8","kind":"admin","id":"relation/12304375"},{"lon":98.5164271,"lat":31.1544198,"label":"ཉ་གཤིས་ཤང","src":"name:bo","bo":"ཉ་གཤིས་ཤང","en":"Nyaxi township","name":"娘西乡","place":"","level":"8","kind":"admin","id":"relation/12348099"},{"lon":89.4343114,"lat":29.2859183,"label":"ཉ་མོ་","src":"name:bo","bo":"ཉ་མོ་","en":"Nyamo","name":"年木乡","place":"","level":"8","kind":"admin","id":"relation/7700018"},{"lon":88.6641687,"lat":29.2795944,"label":"ཉ་རི་གཞུང་","src":"name:bo","bo":"ཉ་རི་གཞུང་","en":"Nyarixung","name":"聂日雄乡","place":"","level":"8","kind":"admin","id":"relation/7699984"},{"lon":89.6800192,"lat":28.9436891,"label":"ཉ་རི་གཞུང་ཤང་།","src":"name:bo","bo":"ཉ་རི་གཞུང་ཤང་།","en":"","name":"年雄乡","place":"","level":"8","kind":"admin","id":"relation/12302941"},{"lon":93.0373762,"lat":30.3625448,"label":"ཉང་པོ","src":"name:bo","bo":"ཉང་པོ","en":"Nyangpu","name":"娘蒲乡","place":"","level":"8","kind":"admin","id":"relation/12339476"},{"lon":91.0772347,"lat":29.7289569,"label":"ཉང་བྲན་ཁྲོམ་གཞུང།","src":"name:bo","bo":"ཉང་བྲན་ཁྲོམ་གཞུང།","en":"Nyangrain Subdistrict","name":"娘热街道 ཉང་བྲན་ཁྲོམ་གཞུང།","place":"","level":"8","kind":"admin","id":"relation/8252890"},{"lon":88.5283679,"lat":30.1211372,"label":"ཉང་ར","src":"name:bo","bo":"ཉང་ར","en":"Nyangra","name":"娘热乡","place":"","level":"8","kind":"admin","id":"relation/11775502"},{"lon":92.2157574,"lat":31.8101144,"label":"ཉི་མ་","src":"name:bo","bo":"ཉི་མ་","en":"Nyima","name":"尼玛乡","place":"","level":"8","kind":"admin","id":"relation/8244833"},{"lon":87.3726728,"lat":31.9215224,"label":"ཉི་མ་གྲོང་བརྡལ","src":"name:bo","bo":"ཉི་མ་གྲོང་བརྡལ","en":"Nyima town","name":"尼玛镇","place":"","level":"8","kind":"admin","id":"relation/12321513"},{"lon":92.001109,"lat":30.0017939,"label":"ཉི་མ་ལྕང་ར་ཤང་།","src":"name:bo","bo":"ཉི་མ་ལྕང་ར་ཤང་།","en":"","name":"尼玛江热乡","place":"","level":"8","kind":"admin","id":"relation/12338750"},{"lon":92.6933369,"lat":31.4857191,"label":"ཉི་མ་ཤང","src":"name:bo","bo":"ཉི་མ་ཤང","en":"Nyima township","name":"尼玛乡","place":"","level":"8","kind":"admin","id":"relation/12321553"},{"lon":91.0932074,"lat":31.0810447,"label":"ཉི་མ་ཤང་།","src":"name:bo","bo":"ཉི་མ་ཤང་།","en":"","name":"尼玛乡","place":"","level":"8","kind":"admin","id":"relation/12321544"},{"lon":87.6591921,"lat":28.5999394,"label":"ཉི་ཤར","src":"name:bo","bo":"ཉི་ཤར","en":"Nyixar","name":"尼辖乡","place":"","level":"8","kind":"admin","id":"relation/12309331"},{"lon":94.5323524,"lat":29.603884,"label":"ཉིང་ཁྲི་གྲོང་རྡལ།","src":"name:bo","bo":"ཉིང་ཁྲི་གྲོང་རྡལ།","en":"","name":"林芝镇","place":"","level":"8","kind":"admin","id":"relation/12339455"},{"lon":89.9888099,"lat":28.3786387,"label":"ཉིང་རུ་སྟོད་ཤང་།","src":"name:bo","bo":"ཉིང་རུ་སྟོད་ཤང་།","en":"","name":"涅如堆乡","place":"","level":"8","kind":"admin","id":"relation/12299114"},{"lon":89.9314174,"lat":28.6811508,"label":"ཉིང་རུ་སྨད་ཤང་།","src":"name:bo","bo":"ཉིང་རུ་སྨད་ཤང་།","en":"","name":"涅如麦乡","place":"","level":"8","kind":"admin","id":"relation/12299115"},{"lon":86.0984268,"lat":30.7133753,"label":"ཉིང་སྒོ་ཤང་།","src":"name:bo","bo":"ཉིང་སྒོ་ཤང་།","en":"","name":"尼果乡","place":"","level":"8","kind":"admin","id":"relation/12311231"},{"lon":79.1642386,"lat":31.8307314,"label":"ཏི་ཡག།","src":"name:bo","bo":"ཏི་ཡག།","en":"Tiyak","name":"底雅乡 ཏི་ཡག།","place":"","level":"8","kind":"admin","id":"relation/7697518"},{"lon":96.6494299,"lat":30.5180218,"label":"ཐང་དཀར་","src":"name:bo","bo":"ཐང་དཀར་","en":"Tanggar town","name":"同卡镇","place":"","level":"8","kind":"admin","id":"relation/12346143"},{"lon":91.5802097,"lat":29.9012174,"label":"ཐང་དཀར་ཤང་།","src":"name:bo","bo":"ཐང་དཀར་ཤང་།","en":"","name":"唐嘎乡","place":"","level":"8","kind":"admin","id":"relation/12338746"},{"lon":98.2901534,"lat":31.6812957,"label":"ཐང་ཕུ་ཤང","src":"name:bo","bo":"ཐང་ཕུ་ཤང","en":"Tangpu township","name":"同普乡","place":"","level":"8","kind":"admin","id":"relation/12348095"},{"lon":91.6249714,"lat":30.3192156,"label":"ཐང་མགོ་ཤང་།","src":"name:bo","bo":"ཐང་མགོ་ཤང་།","en":"","name":"唐古乡","place":"","level":"8","kind":"admin","id":"relation/12338743"},{"lon":91.8017652,"lat":29.9068551,"label":"ཐང་རྒྱ་ཤང་།","src":"name:bo","bo":"ཐང་རྒྱ་ཤང་།","en":"","name":"唐加乡","place":"","level":"8","kind":"admin","id":"relation/12338744"},{"lon":89.2909828,"lat":30.6573911,"label":"ཐར་མ","src":"name:bo","bo":"ཐར་མ","en":"Tarma township","name":"塔尔玛乡","place":"","level":"8","kind":"admin","id":"relation/12321533"},{"lon":97.7289875,"lat":29.9909461,"label":"ཐེམ་ཐོག","src":"name:bo","bo":"ཐེམ་ཐོག","en":"Têmtog Town","name":"田妥镇","place":"","level":"8","kind":"admin","id":"relation/12346176"},{"lon":97.6635479,"lat":31.2892682,"label":"ཐོ་པ་ཤང","src":"name:bo","bo":"ཐོ་པ་ཤང","en":"Toba township","name":"妥坝乡","place":"","level":"8","kind":"admin","id":"relation/12346170"},{"lon":90.3216978,"lat":29.36877,"label":"ཐོན་པ་གྲོང་རྡལ།","src":"name:bo","bo":"ཐོན་པ་གྲོང་རྡལ།","en":"","name":"吞巴镇","place":"","level":"8","kind":"admin","id":"relation/12338726"},{"lon":89.4777846,"lat":29.4864596,"label":"ཐོབ་རྒྱལ","src":"name:bo","bo":"ཐོབ་རྒྱལ","en":"Tobgyai","name":"土布加乡","place":"","level":"8","kind":"admin","id":"relation/7700088"},{"lon":88.1121906,"lat":34.5485362,"label":"དཀར་མཚོ་ཤང","src":"name:bo","bo":"དཀར་མཚོ་ཤང","en":"Garco township","name":"嘎措乡","place":"","level":"8","kind":"admin","id":"relation/12321521"},{"lon":94.8787323,"lat":31.2397372,"label":"དཀར་མོ་ཤང་།","src":"name:bo","bo":"དཀར་མོ་ཤང་།","en":"Karmo township","name":"嘎木乡","place":"","level":"8","kind":"admin","id":"relation/12321830"},{"lon":97.2509529,"lat":30.4290972,"label":"དཀྱིལ་གྲོང་","src":"name:bo","bo":"དཀྱིལ་གྲོང་","en":"Gyizhong","name":"集中乡","place":"","level":"8","kind":"admin","id":"relation/19211679"},{"lon":97.3246023,"lat":30.6844531,"label":"དཀྱིལ་ཐང་གྲོང་རྡལ།","src":"name:bo","bo":"དཀྱིལ་ཐང་གྲོང་རྡལ།","en":"Gyithang township","name":"吉塘镇","place":"","level":"8","kind":"admin","id":"relation/12346207"},{"lon":89.319729,"lat":28.7718807,"label":"དཀྱིལ་མཁར་ཤང་།","src":"name:bo","bo":"དཀྱིལ་མཁར་ཤང་།","en":"","name":"金嘎乡","place":"","level":"8","kind":"admin","id":"relation/12302936"},{"lon":91.2835378,"lat":29.0618231,"label":"དཀྱིལ་རུ་ཤང","src":"name:bo","bo":"དཀྱིལ་རུ་ཤང","en":"Gyiru township","name":"吉汝乡","place":"","level":"8","kind":"admin","id":"relation/11785332"},{"lon":89.1508213,"lat":29.2238652,"label":"དགའ་གདོང་གྲོང་རྡལ།","src":"name:bo","bo":"དགའ་གདོང་གྲོང་རྡལ།","en":"","name":"嘎东镇","place":"","level":"8","kind":"admin","id":"relation/12303083"},{"lon":89.1149142,"lat":28.7440773,"label":"དགའ་ཕུར་ཤང་།","src":"name:bo","bo":"དགའ་ཕུར་ཤང་།","en":"","name":"嘎普乡","place":"","level":"8","kind":"admin","id":"relation/12303086"},{"lon":91.2425241,"lat":29.8588019,"label":"དགའ་ལྡན་ཆོས་འཁོར་གྲོང་རྡལ།","src":"name:bo","bo":"དགའ་ལྡན་ཆོས་འཁོར་གྲོང་རྡལ།","en":"","name":"甘丹曲果镇","place":"","level":"8","kind":"admin","id":"relation/12338737"},{"lon":95.2271602,"lat":29.742119,"label":"དགའ་ལྡན་ཤང","src":"name:bo","bo":"དགའ་ལྡན་ཤང","en":"Gandain township","name":"甘登乡","place":"","level":"8","kind":"admin","id":"relation/11802736"},{"lon":95.7597734,"lat":29.4582225,"label":"དགུ་ཐང་ཤང","src":"name:bo","bo":"དགུ་ཐང་ཤང","en":"Gutang township","name":"格当乡","place":"","level":"8","kind":"admin","id":"relation/12339493"},{"lon":94.0965,"lat":29.7363971,"label":"དགུན་ཚང","src":"name:bo","bo":"དགུན་ཚང","en":"Güncang","name":"更章门巴族乡","place":"","level":"8","kind":"admin","id":"relation/11800488"},{"lon":81.2187908,"lat":31.9811014,"label":"དགེ་རྒྱས","src":"name:bo","bo":"དགེ་རྒྱས","en":"Geji","name":"革吉镇","place":"","level":"8","kind":"admin","id":"relation/7697923"},{"lon":86.9570212,"lat":30.7260938,"label":"དགོན་སྐྱིད་སྦུག་ཤང་།","src":"name:bo","bo":"དགོན་སྐྱིད་སྦུག་ཤང་།","en":"","name":"贡久布乡","place":"","level":"8","kind":"admin","id":"relation/12311247"},{"lon":90.7919525,"lat":29.2093789,"label":"དགོན་སྟོད་གྲོང་རྡལ","src":"name:bo","bo":"དགོན་སྟོད་གྲོང་རྡལ","en":"Goindoi town","name":"岗堆镇","place":"","level":"8","kind":"admin","id":"relation/12300344"},{"lon":94.8356036,"lat":30.7252028,"label":"དཔལ་འབར་གྲོང་རྡལ","src":"name:bo","bo":"དཔལ་འབར་གྲོང་རྡལ","en":"Banbar town","name":"边坝镇","place":"","level":"8","kind":"admin","id":"relation/11816607"},{"lon":91.3705896,"lat":29.8285476,"label":"དཔལ་འབྱོར་གླིང་ཤང་།","src":"name:bo","bo":"དཔལ་འབྱོར་གླིང་ཤང་།","en":"","name":"边交林乡","place":"","level":"8","kind":"admin","id":"relation/12338738"},{"lon":97.9449688,"lat":30.2593344,"label":"དཔལ་རི་ཤང","src":"name:bo","bo":"དཔལ་རི་ཤང","en":"Pelri township","name":"巴日乡","place":"","level":"8","kind":"admin","id":"relation/12346184"},{"lon":96.3949349,"lat":30.7995935,"label":"དཔེ་གདགས་ཤང","src":"name:bo","bo":"དཔེ་གདགས་ཤང","en":"Pedak township","name":"白达乡","place":"","level":"8","kind":"admin","id":"relation/12346137"},{"lon":89.150955,"lat":28.8901552,"label":"དབང་ལྡན་ཤང་།","src":"name:bo","bo":"དབང་ལྡན་ཤང་།","en":"","name":"旺丹乡","place":"","level":"8","kind":"admin","id":"relation/12303084"},{"lon":90.4140762,"lat":29.10279,"label":"དབལ་ད","src":"name:bo","bo":"དབལ་ད","en":"Baidê","name":"白地乡","place":"","level":"8","kind":"admin","id":"relation/12207746"},{"lon":91.5970108,"lat":30.6212519,"label":"དབུ་མ་ཐང་ཤང་།","src":"name:bo","bo":"དབུ་མ་ཐང་ཤང་།","en":"","name":"乌玛塘乡","place":"","level":"8","kind":"admin","id":"relation/12338729"},{"lon":98.2709509,"lat":31.9822809,"label":"དབོན་པོ་སྟོད་ཤང","src":"name:bo","bo":"དབོན་པོ་སྟོད་ཤང","en":"Woinbodoi township","name":"汪布顶乡","place":"","level":"8","kind":"admin","id":"relation/12348093"},{"lon":97.5223974,"lat":30.6705445,"label":"དབྱེན་འདུམ།","src":"name:bo","bo":"དབྱེན་འདུམ།","en":"Yêndum Town","name":"烟多镇","place":"","level":"8","kind":"admin","id":"relation/12346205"},{"lon":93.8809865,"lat":31.6647922,"label":"དབྲོག་རྟ་ཤང་།","src":"name:bo","bo":"དབྲོག་རྟ་ཤང་།","en":"Drogta township","name":"若达乡","place":"","level":"8","kind":"admin","id":"relation/12321824"},{"lon":90.7016746,"lat":29.8625361,"label":"དམར","src":"name:bo","bo":"དམར","en":"Mar","name":"马镇","place":"","level":"8","kind":"admin","id":"relation/11822088"},{"lon":90.9517005,"lat":34.1586749,"label":"དམར་ཆུ་ཤང་།","src":"name:bo","bo":"དམར་ཆུ་ཤང་།","en":"Marchu township","name":"玛曲乡 དམར་ཆུ།","place":"","level":"8","kind":"admin","id":"relation/8242800"},{"lon":96.2842897,"lat":30.9277092,"label":"དམར་རི་གྲོང་རྡལ","src":"name:bo","bo":"དམར་རི་གྲོང་རྡལ","en":"Marri town","name":"马利镇","place":"","level":"8","kind":"admin","id":"relation/12346135"},{"lon":93.8929381,"lat":32.529554,"label":"དམར་རུ་ཤང་།","src":"name:bo","bo":"དམར་རུ་ཤང་།","en":"Marru township","name":"玛如乡","place":"","level":"8","kind":"admin","id":"relation/8244985"},{"lon":92.5761221,"lat":33.0354099,"label":"དམར་རོང་ཤང་།","src":"name:bo","bo":"དམར་རོང་ཤང་།","en":"Marrong township","name":"玛荣乡 དམར་རོང།","place":"","level":"8","kind":"admin","id":"relation/8242840"},{"lon":94.9550835,"lat":32.3060465,"label":"དམུ་ཐ་ཤང","src":"name:bo","bo":"དམུ་ཐ་ཤང","en":"Muta township","name":"木塔乡","place":"","level":"8","kind":"admin","id":"relation/12341710"},{"lon":92.1742166,"lat":32.2810329,"label":"དར་མདུད་ཤང་།","src":"name:bo","bo":"དར་མདུད་ཤང་།","en":"Dardü town","name":"滩堆乡","place":"","level":"8","kind":"admin","id":"relation/8242670"},{"lon":91.4869066,"lat":29.707928,"label":"དར་རྒྱས","src":"name:bo","bo":"དར་རྒྱས","en":"Targyai","name":"塔杰乡","place":"","level":"8","kind":"admin","id":"relation/11824513"},{"lon":85.1883744,"lat":29.5647593,"label":"དར་རྒྱས་གླིང་ཤང","src":"name:bo","bo":"དར་རྒྱས་གླིང་ཤང","en":"Targyailing township","name":"达吉岭乡","place":"","level":"8","kind":"admin","id":"relation/12304385"},{"lon":88.3152459,"lat":29.4077015,"label":"དར་སྡིངས་ཤང་།","src":"name:bo","bo":"དར་སྡིངས་ཤང་།","en":"","name":"塔丁乡","place":"","level":"8","kind":"admin","id":"relation/12312295"},{"lon":93.1824321,"lat":29.1693625,"label":"དུང་དཀར་གྲོང་རྡལ","src":"name:bo","bo":"དུང་དཀར་གྲོང་རྡལ","en":"Tunggar town","name":"洞嘎镇","place":"","level":"8","kind":"admin","id":"relation/12339463"},{"lon":84.7741622,"lat":32.1616323,"label":"དུང་མཚོ་ཤང","src":"name:bo","bo":"དུང་མཚོ་ཤང","en":"Dongco township","name":"洞措乡","place":"","level":"8","kind":"admin","id":"relation/7698245"},{"lon":81.127467,"lat":34.4675135,"label":"དུང་རུ་ཤང","src":"name:bo","bo":"དུང་རུ་ཤང","en":"Dongru township","name":"东汝乡","place":"","level":"8","kind":"admin","id":"relation/7697731"},{"lon":89.2986856,"lat":28.9953829,"label":"དུད་ཆུང་ཤང་།","src":"name:bo","bo":"དུད་ཆུང་ཤང་།","en":"","name":"杜琼乡","place":"","level":"8","kind":"admin","id":"relation/12303078"},{"lon":89.279859,"lat":28.0166503,"label":"དུད་སྣ","src":"name:bo","bo":"དུད་སྣ","en":"Düna","name":"堆纳乡 དུད་སྣ","place":"","level":"8","kind":"admin","id":"relation/4052325"},{"lon":91.1674985,"lat":29.7406759,"label":"དོག་སྡེ་","src":"name:bo","bo":"དོག་སྡེ་","en":"Togdê Subdistrict","name":"夺底街道","place":"","level":"8","kind":"admin","id":"relation/8252891"},{"lon":91.4138852,"lat":31.4439444,"label":"ན་དམར་ཆེ་ཤང","src":"name:bo","bo":"ན་དམར་ཆེ་ཤང","en":"Namarche township","name":"那么切乡","place":"","level":"8","kind":"admin","id":"relation/12321545"},{"lon":88.3043889,"lat":29.5815895,"label":"ན་མོ་ཆེ་ཤང་།","src":"name:bo","bo":"ན་མོ་ཆེ་ཤང་།","en":"","name":"南木切乡","place":"","level":"8","kind":"admin","id":"relation/12312291"},{"lon":89.6897316,"lat":29.1157208,"label":"ན་རོང་ཤང་།","src":"name:bo","bo":"ན་རོང་ཤང་།","en":"","name":"纳如乡","place":"","level":"8","kind":"admin","id":"relation/12302950"},{"lon":92.0324911,"lat":31.5016887,"label":"ནག་ཆུ་གྲོང་བརྡལ","src":"name:bo","bo":"ནག་ཆུ་གྲོང་བརྡལ","en":"Nagqu town","name":"那曲镇","place":"","level":"8","kind":"admin","id":"relation/12321550"},{"lon":83.2745034,"lat":29.7951034,"label":"ནག་ཆུ་ཤང","src":"name:bo","bo":"ནག་ཆུ་ཤང","en":"Nagqu township","name":"纳久乡","place":"","level":"8","kind":"admin","id":"relation/12304378"},{"lon":96.1233528,"lat":30.4380888,"label":"ནག་ལྕོག་ཤང","src":"name:bo","bo":"ནག་ལྕོག་ཤང","en":"Nagjog township","name":"腊久乡","place":"","level":"8","kind":"admin","id":"relation/11815419"},{"lon":86.3870369,"lat":28.6532386,"label":"ནས་ལུང་ཤང","src":"name:bo","bo":"ནས་ལུང་ཤང","en":"Nailung township","name":"乃龙乡","place":"","level":"8","kind":"admin","id":"relation/12304396"},{"lon":89.6234769,"lat":29.4552687,"label":"ནུ་མ","src":"name:bo","bo":"ནུ་མ","en":"Numa","name":"奴玛乡","place":"","level":"8","kind":"admin","id":"relation/7700092"},{"lon":89.290695,"lat":29.1077719,"label":"ནོར་ཁྱུང་གྲོང་རྡལ།","src":"name:bo","bo":"ནོར་ཁྱུང་གྲོང་རྡལ།","en":"","name":"洛江镇","place":"","level":"8","kind":"admin","id":"relation/12303079"},{"lon":98.6051513,"lat":29.8308424,"label":"ནོར་གནས།","src":"name:bo","bo":"ནོར་གནས།","en":"Norné Township","name":"洛尼乡","place":"","level":"8","kind":"admin","id":"relation/12346186"},{"lon":92.1917579,"lat":29.2193447,"label":"ནོར་བུ་ས་གྲོང་རྡལ","src":"name:bo","bo":"ནོར་བུ་ས་གྲོང་རྡལ","en":"Norbusa town","name":"罗布沙镇","place":"","level":"8","kind":"admin","id":"relation/12300363"},{"lon":96.8155973,"lat":30.0570584,"label":"པད་མ་གྲོང་རྡལ","src":"name:bo","bo":"པད་མ་གྲོང་རྡལ","en":"Baima town","name":"白玛镇","place":"","level":"8","kind":"admin","id":"relation/12346146"},{"lon":89.1408502,"lat":27.6943174,"label":"ཕག་ར","src":"name:bo","bo":"ཕག་ར","en":"Pagri","name":"帕里镇 ཕག་ར","place":"","level":"8","kind":"admin","id":"relation/4052315"},{"lon":94.9937411,"lat":29.6295347,"label":"ཕད","src":"name:bo","bo":"ཕད","en":"Pé Township","name":"派镇","place":"","level":"8","kind":"admin","id":"relation/11798598"},{"lon":83.5615629,"lat":29.5089308,"label":"ཕན་ཕྱི་ཤང","src":"name:bo","bo":"ཕན་ཕྱི་ཤང","en":"Penchi township","name":"偏吉乡","place":"","level":"8","kind":"admin","id":"relation/12304370"},{"lon":86.8388897,"lat":29.0010657,"label":"ཕན་སྤྱི་ཤང","src":"name:bo","bo":"ཕན་སྤྱི་ཤང","en":"Pain'gyi township","name":"盆吉乡","place":"","level":"8","kind":"admin","id":"relation/12309337"},{"lon":90.1541318,"lat":29.2382018,"label":"ཕུ་གསུམ་ཤང་།","src":"name:bo","bo":"ཕུ་གསུམ་ཤང་།","en":"","name":"普松乡","place":"","level":"8","kind":"admin","id":"relation/12312553"},{"lon":90.137841,"lat":29.501528,"label":"ཕུ་གསུམ་ཤང་།","src":"name:bo","bo":"ཕུ་གསུམ་ཤང་།","en":"","name":"普松乡","place":"","level":"8","kind":"admin","id":"relation/12338722"},{"lon":89.0716264,"lat":29.9183549,"label":"ཕུ་ཐང་","src":"name:bo","bo":"ཕུ་ཐང་","en":"Putang","name":"普当乡","place":"","level":"8","kind":"admin","id":"relation/7700069"},{"lon":90.1530504,"lat":31.2976423,"label":"ཕུ་བུ་གྲོང་རྡལ།","src":"name:bo","bo":"ཕུ་བུ་གྲོང་རྡལ།","en":"","name":"普保镇","place":"","level":"8","kind":"admin","id":"relation/12321539"},{"lon":90.2735524,"lat":28.4865117,"label":"ཕུ་མ་བྱང་ཐང་ཤང","src":"name:bo","bo":"ཕུ་མ་བྱང་ཐང་ཤང","en":"Pumaqangtang township","name":"普玛江塘乡","place":"","level":"8","kind":"admin","id":"relation/12207740"},{"lon":87.9347038,"lat":29.4406153,"label":"ཕུན་ཚོགས་གླིང་ཤང་།","src":"name:bo","bo":"ཕུན་ཚོགས་གླིང་ཤང་།","en":"","name":"彭措林乡","place":"","level":"8","kind":"admin","id":"relation/12311869"},{"lon":91.8692335,"lat":29.0954721,"label":"ཕོ་བྲང་ཤང","src":"name:bo","bo":"ཕོ་བྲང་ཤང","en":"Pozhang township","name":"颇章乡","place":"","level":"8","kind":"admin","id":"relation/12300352"},{"lon":91.2145099,"lat":30.2206068,"label":"ཕོད་མདོ་ཤང་།","src":"name:bo","bo":"ཕོད་མདོ་ཤང་།","en":"","name":"旁多乡","place":"","level":"8","kind":"admin","id":"relation/12338741"},{"lon":88.3026276,"lat":30.0232893,"label":"ཕྱིང་ཐུལ་ཤང་།","src":"name:bo","bo":"ཕྱིང་ཐུལ་ཤང་།","en":"","name":"青都乡","place":"","level":"8","kind":"admin","id":"relation/12312287"},{"lon":90.6123987,"lat":30.9276488,"label":"ཕྱིང་ལུང་ཤང་།","src":"name:bo","bo":"ཕྱིང་ལུང་ཤང་།","en":"","name":"青龙乡","place":"","level":"8","kind":"admin","id":"relation/12321543"},{"lon":88.8887071,"lat":29.1000481,"label":"ཕྱུག་པོ་གཞུང་","src":"name:bo","bo":"ཕྱུག་པོ་གཞུང་","en":"Qugboxung","name":"曲布雄乡","place":"","level":"8","kind":"admin","id":"relation/7699985"},{"lon":88.5822104,"lat":30.4056062,"label":"བ་ཚྭ་ཤང","src":"name:bo","bo":"བ་ཚྭ་ཤང","en":"Patra township","name":"巴扎乡","place":"","level":"8","kind":"admin","id":"relation/12321532"},{"lon":89.1576187,"lat":29.1569616,"label":"བ་ཚྭ་ཤང་།","src":"name:bo","bo":"བ་ཚྭ་ཤང་།","en":"","name":"巴扎乡","place":"","level":"8","kind":"admin","id":"relation/12303082"},{"lon":86.8225217,"lat":28.2580869,"label":"བཀྲ་ཤིས་འཛོམས་ཤང","src":"name:bo","bo":"བཀྲ་ཤིས་འཛོམས་ཤང","en":"Tashi Dzom town","name":"扎西宗镇","place":"","level":"8","kind":"admin","id":"relation/7508856"},{"lon":87.869085,"lat":29.3010255,"label":"བཀྲ་ཤིས་འཛོམས་ཤང་།","src":"name:bo","bo":"བཀྲ་ཤིས་འཛོམས་ཤང་།","en":"","name":"扎西宗乡","place":"","level":"8","kind":"admin","id":"relation/12311870"},{"lon":94.0139515,"lat":29.3297213,"label":"བཀྲ་ཤིས་རབ་བརྟན་ཤང","src":"name:bo","bo":"བཀྲ་ཤིས་རབ་བརྟན་ཤང","en":"Zhaxirabdain township","name":"扎西绕登乡","place":"","level":"8","kind":"admin","id":"relation/12339459"},{"lon":79.6518277,"lat":32.5271112,"label":"བཀྲ་ཤིས་སྒང","src":"name:bo","bo":"བཀྲ་ཤིས་སྒང","en":"Zhaxigang","name":"扎西岗镇","place":"","level":"8","kind":"admin","id":"relation/7697655"},{"lon":88.1658101,"lat":28.5868313,"label":"བཀྲ་ཤིས་སྒང་ཤང་།","src":"name:bo","bo":"བཀྲ་ཤིས་སྒང་ཤང་།","en":"Tashigang township","name":"扎西岗乡","place":"","level":"8","kind":"admin","id":"relation/12309346"},{"lon":87.9550282,"lat":28.8685574,"label":"བཀྲ་ཤིས་སྒང་ཤང་།","src":"name:bo","bo":"བཀྲ་ཤིས་སྒང་ཤང་།","en":"","name":"扎西岗乡","place":"","level":"8","kind":"admin","id":"relation/12311857"},{"lon":88.172325,"lat":29.2759902,"label":"བཀྲ་ཤིས་སྒང་ཤང་།","src":"name:bo","bo":"བཀྲ་ཤིས་སྒང་ཤང་།","en":"","name":"扎西岗乡","place":"","level":"8","kind":"admin","id":"relation/12311868"},{"lon":91.8555893,"lat":29.6888545,"label":"བཀྲ་ཤིས་སྒང་ཤང་།","src":"name:bo","bo":"བཀྲ་ཤིས་སྒང་ཤང་།","en":"","name":"扎西岗乡","place":"","level":"8","kind":"admin","id":"relation/12338749"},{"lon":88.9830452,"lat":28.8691744,"label":"བཀྲི་ཤར་ཤང་།","src":"name:bo","bo":"བཀྲི་ཤར་ཤང་།","en":"","name":"者下乡","place":"","level":"8","kind":"admin","id":"relation/12303085"},{"lon":91.0515517,"lat":29.6633229,"label":"བཅིངས་འགྲོལ་ནུབ་ལམ་","src":"name:bo","bo":"བཅིངས་འགྲོལ་ནུབ་ལམ་","en":"Jinzhuxilu Subdistrict","name":"金珠西路街道","place":"","level":"8","kind":"admin","id":"relation/8252882"},{"lon":91.433072,"lat":29.587191,"label":"བདེ་ཆེན","src":"name:bo","bo":"བདེ་ཆེན","en":"Dêqên","name":"德庆镇","place":"","level":"8","kind":"admin","id":"relation/11824514"},{"lon":90.8081029,"lat":30.0284731,"label":"བདེ་ཆེན","src":"name:bo","bo":"བདེ་ཆེན","en":"Dêqên","name":"德庆镇","place":"","level":"8","kind":"admin","id":"relation/11822087"},{"lon":90.2357768,"lat":30.409372,"label":"བདེ་ཆེན་ཤང་།","src":"name:bo","bo":"བདེ་ཆེན་ཤང་།","en":"","name":"德庆镇","place":"","level":"8","kind":"admin","id":"relation/12321536"},{"lon":95.1700357,"lat":29.3907743,"label":"བདེ་ཞིང་ཤང","src":"name:bo","bo":"བདེ་ཞིང་ཤང","en":"Dezhing Township","name":"德兴乡","place":"","level":"8","kind":"admin","id":"relation/12339489"},{"lon":89.8716019,"lat":29.1264205,"label":"བདེ་སྐྱིད་གླིང་ཤང་།","src":"name:bo","bo":"བདེ་སྐྱིད་གླིང་ཤང་།","en":"","name":"德吉林镇","place":"","level":"8","kind":"admin","id":"relation/12312546"},{"lon":94.0893818,"lat":31.1465345,"label":"བན་དཀར་","src":"name:bo","bo":"བན་དཀར་","en":"Benkar","name":"白嘎乡","place":"","level":"8","kind":"admin","id":"relation/11761349"},{"lon":91.3211113,"lat":28.1371809,"label":"བན་པ་ཤང","src":"name:bo","bo":"བན་པ་ཤང","en":"Painba township","name":"边巴乡","place":"","level":"8","kind":"admin","id":"relation/12201981"},{"lon":89.3106422,"lat":28.5108801,"label":"བཞོན་འཕྲེང་ཤང་།","src":"name:bo","bo":"བཞོན་འཕྲེང་ཤང་།","en":"","name":"雄章乡","place":"","level":"8","kind":"admin","id":"relation/12299117"},{"lon":86.7262851,"lat":29.5186564,"label":"བཟང་བཟང་གྲོང་རྡལ།","src":"name:bo","bo":"བཟང་བཟང་གྲོང་རྡལ།","en":"","name":"桑桑镇","place":"","level":"8","kind":"admin","id":"relation/12311240"},{"lon":81.0744993,"lat":30.8158515,"label":"བར་ག་ཤང","src":"name:bo","bo":"བར་ག་ཤང","en":"Parga town","name":"巴嘎镇","place":"","level":"8","kind":"admin","id":"relation/5911366"},{"lon":89.8166731,"lat":32.4197818,"label":"བར་གླིང་ཤང་།","src":"name:bo","bo":"བར་གླིང་ཤང་།","en":"Parling township","name":"巴岭乡","place":"","level":"8","kind":"admin","id":"relation/12321525"},{"lon":90.2429134,"lat":29.265614,"label":"བར་ཐང་ཤང་།","src":"name:bo","bo":"བར་ཐང་ཤང་།","en":"","name":"帕当乡","place":"","level":"8","kind":"admin","id":"relation/12312554"},{"lon":84.2253166,"lat":31.3616226,"label":"བར་མ་","src":"name:bo","bo":"བར་མ་","en":"Parjang","name":"帕江乡","place":"","level":"8","kind":"admin","id":"relation/12304381"},{"lon":83.2405118,"lat":30.0056293,"label":"བར་ཡངས་གྲོང་བརྡལ","src":"name:bo","bo":"བར་ཡངས་གྲོང་བརྡལ","en":"Payang town","name":"帕羊镇","place":"","level":"8","kind":"admin","id":"relation/12304374"},{"lon":91.1275969,"lat":29.6495574,"label":"བར་སྒོར་","src":"name:bo","bo":"བར་སྒོར་","en":"Barkor Subdistrict","name":"八廓街道","place":"","level":"8","kind":"admin","id":"relation/8252837"},{"lon":94.3058362,"lat":29.7144654,"label":"བརྒྱད་གཅིག་སྡེ་ཁུལ་།","src":"name:bo","bo":"བརྒྱད་གཅིག་སྡེ་ཁུལ་།","en":"","name":"八一街道","place":"","level":"8","kind":"admin","id":"relation/12339453"},{"lon":98.4755639,"lat":28.8085027,"label":"བལ་ཐོག་ཤང","src":"name:bo","bo":"བལ་ཐོག་ཤང","en":"Pütog","name":"碧土乡","place":"","level":"8","kind":"admin","id":"relation/11807251"},{"lon":90.7344899,"lat":31.3811165,"label":"བལ་ལ་གྲོང་རྡལ།","src":"name:bo","bo":"བལ་ལ་གྲོང་རྡལ།","en":"","name":"北拉镇","place":"","level":"8","kind":"admin","id":"relation/12321542"},{"lon":91.4624486,"lat":29.4239644,"label":"བསམ་ཡས་གྲོང་རྡལ","src":"name:bo","bo":"བསམ་ཡས་གྲོང་རྡལ","en":"Samye town","name":"桑耶镇","place":"","level":"8","kind":"admin","id":"relation/11785329"},{"lon":87.6369419,"lat":29.4730354,"label":"བསྟར་བརྒྱུད་ཤང་།","src":"name:bo","bo":"བསྟར་བརྒྱུད་ཤང་།","en":"","name":"达居乡","place":"","level":"8","kind":"admin","id":"relation/12311245"},{"lon":94.3036582,"lat":29.4874293,"label":"བུ་ཆུ་ཤང་།","src":"name:bo","bo":"བུ་ཆུ་ཤང་།","en":"","name":"布久乡","place":"","level":"8","kind":"admin","id":"relation/12339454"},{"lon":92.8149916,"lat":32.2375646,"label":"བེ་གཞུང་","src":"name:bo","bo":"བེ་གཞུང་","en":"Bezhung","name":"白雄乡","place":"","level":"8","kind":"admin","id":"relation/8244866"},{"lon":96.8180423,"lat":31.1398228,"label":"བེའུ་མདའ་ཤང","src":"name:bo","bo":"བེའུ་མདའ་ཤང","en":"Pênda township","name":"宾达乡","place":"","level":"8","kind":"admin","id":"relation/12346154"},{"lon":93.2079983,"lat":32.1112746,"label":"བོན་མཐའ་ཤང་།","src":"name:bo","bo":"བོན་མཐའ་ཤང་།","en":"Bönta township","name":"本塔乡","place":"","level":"8","kind":"admin","id":"relation/8244990"},{"lon":90.6032377,"lat":31.8688033,"label":"བྱ་ཁྱུང་གྲོང་རྡལ།","src":"name:bo","bo":"བྱ་ཁྱུང་གྲོང་རྡལ།","en":"","name":"佳琼镇","place":"","level":"8","kind":"admin","id":"relation/12321541"},{"lon":92.7237112,"lat":28.2377262,"label":"བྱ་ཡུལ་ཤང་།","src":"name:bo","bo":"བྱ་ཡུལ་ཤང་།","en":"Chayul Township","name":"加玉乡","place":"","level":"8","kind":"admin","id":"relation/12210071"},{"lon":95.3893088,"lat":29.7371599,"label":"བྱ་ར་ས་ཤང","src":"name:bo","bo":"བྱ་ར་ས་ཤང","en":"Qarasa township","name":"加热萨乡","place":"","level":"8","kind":"admin","id":"relation/11802737"},{"lon":91.1398943,"lat":30.0061444,"label":"བྱང་ཁ་ཤང་།","src":"name:bo","bo":"བྱང་ཁ་ཤང་།","en":"","name":"强嘎乡","place":"","level":"8","kind":"admin","id":"relation/12338735"},{"lon":98.8988107,"lat":30.4935227,"label":"བྱང་གསུམ","src":"name:bo","bo":"བྱང་གསུམ","en":"Qangsum","name":"雄松乡","place":"","level":"8","kind":"admin","id":"relation/11808875"},{"lon":90.6024077,"lat":29.2559046,"label":"བྱང་ཐང་གྲོང་རྡལ","src":"name:bo","bo":"བྱང་ཐང་གྲོང་རྡལ","en":"Qangtang town","name":"江塘镇","place":"","level":"8","kind":"admin","id":"relation/12300346"},{"lon":91.000682,"lat":31.9702542,"label":"བྱང་མ་གྲོང་རྡལ།","src":"name:bo","bo":"བྱང་མ་གྲོང་རྡལ།","en":"Qangma town","name":"强玛镇","place":"","level":"8","kind":"admin","id":"relation/8242639"},{"lon":79.625979,"lat":31.9771798,"label":"བྱང་རྩེ།","src":"name:bo","bo":"བྱང་རྩེ།","en":"Qangzê","name":"香孜乡 བྱང་རྩེ།","place":"","level":"8","kind":"admin","id":"relation/7697525"},{"lon":89.3585662,"lat":29.1383373,"label":"བྱང་སྟོད","src":"name:bo","bo":"བྱང་སྟོད","en":"Jangtö","name":"强堆乡","place":"","level":"8","kind":"admin","id":"relation/11779679"},{"lon":98.0340723,"lat":30.6040412,"label":"བྱམས་མདུན་གྲོང་རྡལ","src":"name:bo","bo":"བྱམས་མདུན་གྲོང་རྡལ","en":"Qamdün township","name":"香堆镇","place":"","level":"8","kind":"admin","id":"relation/12346198"},{"lon":98.8442162,"lat":29.0896063,"label":"བྱིས་གྲོང་།","src":"name:bo","bo":"བྱིས་གྲོང་།","en":"Jidrong","name":"徐中乡","place":"","level":"8","kind":"admin","id":"relation/12346191"},{"lon":89.8114628,"lat":29.3806393,"label":"བྱེ་བ་ཤང་།","src":"name:bo","bo":"བྱེ་བ་ཤང་།","en":"","name":"切娃乡","place":"","level":"8","kind":"admin","id":"relation/12312551"},{"lon":87.9435292,"lat":30.2087759,"label":"བྱེས་ཆུང་ཤང་།","src":"name:bo","bo":"བྱེས་ཆུང་ཤང་།","en":"","name":"切琼乡","place":"","level":"8","kind":"admin","id":"relation/12312286"},{"lon":93.7749165,"lat":30.0107682,"label":"བྲག་ཆུ་གྲོང་རྡལ","src":"name:bo","bo":"བྲག་ཆུ་གྲོང་རྡལ","en":"Pagqu town","name":"巴河镇","place":"","level":"8","kind":"admin","id":"relation/12339471"},{"lon":91.7054119,"lat":32.3867207,"label":"བྲག་ནག་གྲོང་རྡལ།","src":"name:bo","bo":"བྲག་ནག་གྲོང་རྡལ།","en":"Pana town","name":"帕那镇","place":"","level":"8","kind":"admin","id":"relation/8242645"},{"lon":84.9041349,"lat":34.2299812,"label":"བྲག་པོ་ཤང","src":"name:bo","bo":"བྲག་པོ་ཤང","en":"Chabug township","name":"察布乡","place":"","level":"8","kind":"admin","id":"relation/7698243"},{"lon":88.5191396,"lat":29.18718,"label":"བྲག་མཇུག་ཤང་།","src":"name:bo","bo":"བྲག་མཇུག་ཤང་།","en":"","name":"扯休乡","place":"","level":"8","kind":"admin","id":"relation/12311865"},{"lon":90.0304934,"lat":29.6171454,"label":"བྲག་འཁོར་ཤང་།","src":"name:bo","bo":"བྲག་འཁོར་ཤང་།","en":"","name":"帕古乡","place":"","level":"8","kind":"admin","id":"relation/12338719"},{"lon":98.1424299,"lat":29.1352651,"label":"བྲག་ཡུལ་གྲོང་རྡལ།","src":"name:bo","bo":"བྲག་ཡུལ་གྲོང་རྡལ།","en":"Oktang","name":"扎玉镇","place":"","level":"8","kind":"admin","id":"relation/11807250"},{"lon":94.3772938,"lat":30.3773611,"label":"བྲག་སྐས","src":"name:bo","bo":"བྲག་སྐས","en":"Paggai township","name":"八盖乡","place":"","level":"8","kind":"admin","id":"relation/12339478"},{"lon":85.8042539,"lat":29.072807,"label":"བྲག་སྣེ་ཤང","src":"name:bo","bo":"བྲག་སྣེ་ཤང","en":"Drakna township","name":"差那乡","place":"","level":"8","kind":"admin","id":"relation/12304391"},{"lon":83.9982433,"lat":29.7618419,"label":"བླ་རང་ཤང","src":"name:bo","bo":"བླ་རང་ཤང","en":"Labrang township","name":"拉让乡","place":"","level":"8","kind":"admin","id":"relation/12304371"},{"lon":90.1487375,"lat":31.7989549,"label":"མ་ཆེན་ཤང་།","src":"name:bo","bo":"མ་ཆེན་ཤང་།","en":"","name":"马前乡","place":"","level":"8","kind":"admin","id":"relation/12321540"},{"lon":83.455039,"lat":31.8678654,"label":"མ་མིག་ཤང","src":"name:bo","bo":"མ་མིག་ཤང","en":"Marme township","name":"麻米乡","place":"","level":"8","kind":"admin","id":"relation/7698246"},{"lon":96.4021194,"lat":31.1369077,"label":"མཁར་དམར་མདོ་ཤང","src":"name:bo","bo":"མཁར་དམར་མདོ་ཤང","en":"Karmardo township","name":"卡玛多乡","place":"","level":"8","kind":"admin","id":"relation/12346139"},{"lon":96.9826715,"lat":30.2838588,"label":"མཁར་བ་འཕེལ་ཁྱིམ་ཤང","src":"name:bo","bo":"མཁར་བ་འཕེལ་ཁྱིམ་ཤང","en":"Karwapêkyim township","name":"卡瓦白庆乡","place":"","level":"8","kind":"admin","id":"relation/12346144"},{"lon":89.934244,"lat":29.4261604,"label":"མཁར་རུ་ཤང་།","src":"name:bo","bo":"མཁར་རུ་ཤང་།","en":"","name":"卡如乡","place":"","level":"8","kind":"admin","id":"relation/12338720"},{"lon":89.147476,"lat":29.5443894,"label":"མཁར་རྩེ","src":"name:bo","bo":"མཁར་རྩེ","en":"Karze","name":"卡孜乡","place":"","level":"8","kind":"admin","id":"relation/7700083"},{"lon":91.0237773,"lat":29.8751153,"label":"མཁར་རྩེ་ཤང་།","src":"name:bo","bo":"མཁར་རྩེ་ཤང་།","en":"","name":"卡孜乡","place":"","level":"8","kind":"admin","id":"relation/12338734"},{"lon":90.5026457,"lat":29.0714806,"label":"མཁར་ལུང་","src":"name:bo","bo":"མཁར་ལུང་","en":"Karlung township","name":"卡龙乡","place":"","level":"8","kind":"admin","id":"relation/12207745"},{"lon":92.4219917,"lat":27.9826006,"label":"མཁར་ལྟག","src":"name:bo","bo":"མཁར་ལྟག","en":"Khartak Township","name":"卡达乡","place":"","level":"8","kind":"admin","id":"relation/7700794"},{"lon":97.5924441,"lat":30.4863271,"label":"མཁར་སྒང་ཤང","src":"name:bo","bo":"མཁར་སྒང་ཤང","en":"Kargang township","name":"卡贡乡","place":"","level":"8","kind":"admin","id":"relation/12346201"},{"lon":98.1680695,"lat":31.3336718,"label":"མཁར་སྒང་ཤང","src":"name:bo","bo":"མཁར་སྒང་ཤང","en":"Kargang township","name":"卡贡乡","place":"","level":"8","kind":"admin","id":"relation/12348097"},{"lon":89.5923492,"lat":29.0975267,"label":"མཁར་སྟོད་ཤང་།","src":"name:bo","bo":"མཁར་སྟོད་ཤང་།","en":"","name":"卡堆乡","place":"","level":"8","kind":"admin","id":"relation/12302949"},{"lon":89.476055,"lat":29.1573865,"label":"མཁར་སྨད་ཤང་།","src":"name:bo","bo":"མཁར་སྨད་ཤང་།","en":"","name":"卡麦乡","place":"","level":"8","kind":"admin","id":"relation/12302948"},{"lon":91.8266057,"lat":27.8373839,"label":"མག་མང།","src":"name:bo","bo":"མག་མང།","en":"Marmang","name":"麻麻门巴民族乡","place":"","level":"8","kind":"admin","id":"relation/7700754"},{"lon":89.114753,"lat":28.9833771,"label":"མག་ཤང་།","src":"name:bo","bo":"མག་ཤང་།","en":"","name":"玛乡","place":"","level":"8","kind":"admin","id":"relation/12303081"},{"lon":97.2159118,"lat":29.2076678,"label":"མགོ་ཡུལ་ཤང","src":"name:bo","bo":"མགོ་ཡུལ་ཤང","en":"Goyul township","name":"古玉乡","place":"","level":"8","kind":"admin","id":"relation/12339499"},{"lon":97.8319878,"lat":29.0078179,"label":"མགོ་ལ་ཤང","src":"name:bo","bo":"མགོ་ལ་ཤང","en":"Golag township","name":"古拉乡","place":"","level":"8","kind":"admin","id":"relation/12339498"},{"lon":87.6687079,"lat":28.8954292,"label":"མང་ཕུ","src":"name:bo","bo":"མང་ཕུ","en":"Mangpu","name":"芒普乡","place":"","level":"8","kind":"admin","id":"relation/12311876"},{"lon":89.7229813,"lat":29.7701103,"label":"མང་ར","src":"name:bo","bo":"མང་ར","en":"Mangra","name":"芒热乡","place":"","level":"8","kind":"admin","id":"relation/7700105"},{"lon":90.6141306,"lat":28.9846856,"label":"མངར་བྲག་ཤང","src":"name:bo","bo":"མངར་བྲག་ཤང","en":"Ngarzhag township","name":"阿扎乡","place":"","level":"8","kind":"admin","id":"relation/12207743"},{"lon":98.2188292,"lat":29.4794674,"label":"མཆོད་རྟེན།","src":"name:bo","bo":"མཆོད་རྟེན།","en":"Chörten","name":"曲登乡","place":"","level":"8","kind":"admin","id":"relation/12346181"},{"lon":90.9135231,"lat":29.5425159,"label":"མཉེས་ཐང་","src":"name:bo","bo":"མཉེས་ཐང་","en":"Nyêtang","name":"聂当乡","place":"","level":"8","kind":"admin","id":"relation/11820848"},{"lon":79.763586,"lat":31.3874063,"label":"མཐོ་ལིང་གྲོང་བརྡལ","src":"name:bo","bo":"མཐོ་ལིང་གྲོང་བརྡལ","en":"Tholing town","name":"托林镇 མཐོ་ལྡིང།","place":"","level":"8","kind":"admin","id":"relation/7697505"},{"lon":88.1630286,"lat":29.3891421,"label":"མཐོང་སྨོན་ཤང་།","src":"name:bo","bo":"མཐོང་སྨོན་ཤང་།","en":"","name":"通门乡","place":"","level":"8","kind":"admin","id":"relation/12312293"},{"lon":80.3416012,"lat":30.937429,"label":"མདའ་འབབ་ཤང","src":"name:bo","bo":"མདའ་འབབ་ཤང","en":"Daba township","name":"达巴镇 མདའ་འབབ","place":"","level":"8","kind":"admin","id":"relation/7697517"},{"lon":90.1906338,"lat":29.4205028,"label":"མདའ་རོང་གྲོང་རྡལ།","src":"name:bo","bo":"མདའ་རོང་གྲོང་རྡལ།","en":"","name":"塔荣镇","place":"","level":"8","kind":"admin","id":"relation/12338725"},{"lon":90.8279952,"lat":28.7232942,"label":"མདོ་ཆོས་ཤང","src":"name:bo","bo":"མདོ་ཆོས་ཤང","en":"Doqoi township","name":"多却乡","place":"","level":"8","kind":"admin","id":"relation/12207742"},{"lon":88.9887029,"lat":29.4988502,"label":"མདོ་མཆོད","src":"name:bo","bo":"མདོ་མཆོད","en":"Doqoi","name":"多角乡","place":"","level":"8","kind":"admin","id":"relation/7700080"},{"lon":92.9337571,"lat":28.4570715,"label":"མདོ་ཡུས་ལྷོ་པ་ཤང་།","src":"name:bo","bo":"མདོ་ཡུས་ལྷོ་པ་ཤང་།","en":"Doyul township","name":"斗玉珞巴民族乡","place":"","level":"8","kind":"admin","id":"relation/12210069"},{"lon":86.9711212,"lat":29.1372505,"label":"མདོ་སྤེ་ཤང་།","src":"name:bo","bo":"མདོ་སྤེ་ཤང་།","en":"","name":"多白乡","place":"","level":"8","kind":"admin","id":"relation/12311242"},{"lon":89.4920437,"lat":31.4836479,"label":"མན་ཐང་ཤང་།","src":"name:bo","bo":"མན་ཐང་ཤང་།","en":"","name":"门当乡","place":"","level":"8","kind":"admin","id":"relation/12321538"},{"lon":94.3995263,"lat":32.4121358,"label":"མམ་ཐ་ཤང་།","src":"name:bo","bo":"མམ་ཐ་ཤང་།","en":"Mamta township","name":"江绵乡","place":"","level":"8","kind":"admin","id":"relation/8244954"},{"lon":90.4707475,"lat":29.344683,"label":"མཚར་པ་ནང་","src":"name:bo","bo":"མཚར་པ་ནང་","en":"Carbanang","name":"茶巴拉乡","place":"","level":"8","kind":"admin","id":"relation/11820851"},{"lon":85.6640803,"lat":31.2732328,"label":"མཚེ་རི་ཤང","src":"name:bo","bo":"མཚེ་རི་ཤང","en":"Cêri township","name":"磁石乡","place":"","level":"8","kind":"admin","id":"relation/7698274"},{"lon":94.6968663,"lat":30.9327803,"label":"མཚོ་ཁ","src":"name:bo","bo":"མཚོ་ཁ","en":"Coka","name":"草卡镇","place":"","level":"8","kind":"admin","id":"relation/12321831"},{"lon":85.1022433,"lat":30.9583872,"label":"མཚོ་ཆེན","src":"name:bo","bo":"མཚོ་ཆེན","en":"Coqên","name":"措勤镇","place":"","level":"8","kind":"admin","id":"relation/7698275"},{"lon":91.2589966,"lat":32.2199006,"label":"མཚོ་དམར་","src":"name:bo","bo":"མཚོ་དམར་","en":"Cuoma","name":"措玛乡","place":"","level":"8","kind":"admin","id":"relation/8242668"},{"lon":93.9934424,"lat":30.1085297,"label":"མཚོ་མགོ་ཤང","src":"name:bo","bo":"མཚོ་མགོ་ཤང","en":"Conggo township","name":"错高乡","place":"","level":"8","kind":"admin","id":"relation/12339475"},{"lon":98.2311108,"lat":29.974677,"label":"མཚོ་ལྔ།","src":"name:bo","bo":"མཚོ་ལྔ།","en":"Cuowa Township","name":"措瓦乡","place":"","level":"8","kind":"admin","id":"relation/12346179"},{"lon":87.4517097,"lat":28.4777026,"label":"མཚོ་སྒོ","src":"name:bo","bo":"མཚོ་སྒོ","en":"Cogo","name":"措果乡","place":"","level":"8","kind":"admin","id":"relation/12309328"},{"lon":90.9825596,"lat":29.9790432,"label":"མཚོ་སྟོད་ཤང་།","src":"name:bo","bo":"མཚོ་སྟོད་ཤང་།","en":"","name":"春堆乡","place":"","level":"8","kind":"admin","id":"relation/12338736"},{"lon":92.0472616,"lat":28.0973287,"label":"མཚོ་སྣ་གྲོང་རྡལ","src":"name:bo","bo":"མཚོ་སྣ་གྲོང་རྡལ","en":"Cona town","name":"མཚོ་སྣ 错那镇","place":"","level":"8","kind":"admin","id":"relation/7700668"},{"lon":87.1642633,"lat":34.36479,"label":"མཚོ་སྦྲེལ་བྱང་མ་ཤང","src":"name:bo","bo":"མཚོ་སྦྲེལ་བྱང་མ་ཤང","en":"Tsodrel Jangma","name":"措折强玛乡","place":"","level":"8","kind":"admin","id":"relation/12321520"},{"lon":87.8448165,"lat":32.1626277,"label":"མཚོ་སྦྲེལ་ལྷོ་མ་གྲོང་བརྡལ","src":"name:bo","bo":"མཚོ་སྦྲེལ་ལྷོ་མ་གྲོང་བརྡལ","en":"Cozhêlhoma town","name":"措折罗玛镇","place":"","level":"8","kind":"admin","id":"relation/12321523"},{"lon":91.3627497,"lat":28.4692428,"label":"མཚོ་སྨད་གྲོང་རྡལ","src":"name:bo","bo":"མཚོ་སྨད་གྲོང་རྡལ","en":"Comai town","name":"措美镇","place":"","level":"8","kind":"admin","id":"relation/12207737"},{"lon":87.0328432,"lat":30.3358427,"label":"མཚོ་སྨད་ཤང་།","src":"name:bo","bo":"མཚོ་སྨད་ཤང་།","en":"","name":"措迈乡","place":"","level":"8","kind":"admin","id":"relation/12311238"},{"lon":88.3292101,"lat":31.6427926,"label":"མར་ཡོ་ཤང","src":"name:bo","bo":"མར་ཡོ་ཤང","en":"Mar'yo","name":"马跃乡","place":"","level":"8","kind":"admin","id":"relation/12321527"},{"lon":89.9867324,"lat":29.7551563,"label":"མར་རྐྱང་ཤང་།","src":"name:bo","bo":"མར་རྐྱང་ཤང་།","en":"","name":"麻江乡","place":"","level":"8","kind":"admin","id":"relation/12338718"},{"lon":94.5729594,"lat":31.0353026,"label":"མར་ཤོག","src":"name:bo","bo":"མར་ཤོག","en":"Marxog township","name":"马秀乡","place":"","level":"8","kind":"admin","id":"relation/12321833"},{"lon":93.3470635,"lat":28.6420385,"label":"མི་ཁྱིམ་བདུན","src":"name:bo","bo":"མི་ཁྱིམ་བདུན","en":"Zhari township","name":"扎日乡","place":"","level":"8","kind":"admin","id":"relation/12210066"},{"lon":98.8371562,"lat":30.5793342,"label":"མིག་མདོ་ཤང","src":"name:bo","bo":"མིག་མདོ་ཤང","en":"Mindo township","name":"敏都乡","place":"","level":"8","kind":"admin","id":"relation/11808874"},{"lon":95.4585813,"lat":29.2473137,"label":"མེ་ཏོག་གྲོང་རྡལ","src":"name:bo","bo":"མེ་ཏོག་གྲོང་རྡལ","en":"Medog town","name":"墨脱镇","place":"","level":"8","kind":"admin","id":"relation/12339491"},{"lon":88.8073323,"lat":28.6210345,"label":"མོ་ལྷ་ཤང་།","src":"name:bo","bo":"མོ་ལྷ་ཤང་།","en":"","name":"木拉乡","place":"","level":"8","kind":"admin","id":"relation/12311867"},{"lon":80.6284561,"lat":31.3536031,"label":"མོན་འཚེར","src":"name:bo","bo":"མོན་འཚེར","en":"Moincêr","name":"门士乡","place":"","level":"8","kind":"admin","id":"relation/7697648"},{"lon":87.4820029,"lat":30.2110945,"label":"མོས་པ་བྱིན་ཆེན་ཤང་།","src":"name:bo","bo":"མོས་པ་བྱིན་ཆེན་ཤང་།","en":"","name":"美巴切勤乡","place":"","level":"8","kind":"admin","id":"relation/12312283"},{"lon":98.3944559,"lat":28.5150292,"label":"ཚ་བ་རོང","src":"name:bo","bo":"ཚ་བ་རོང","en":"Tsawarong Township","name":"察瓦龙乡","place":"","level":"8","kind":"admin","id":"relation/12339497"},{"lon":88.327303,"lat":28.9519653,"label":"ཚ་རོང་ཤང་།","src":"name:bo","bo":"ཚ་རོང་ཤང་།","en":"","name":"查荣乡","place":"","level":"8","kind":"admin","id":"relation/12311859"},{"lon":89.341464,"lat":29.4800071,"label":"ཚར","src":"name:bo","bo":"ཚར","en":"Tsar","name":"查尔乡","place":"","level":"8","kind":"admin","id":"relation/7700097"},{"lon":91.2036729,"lat":29.5921213,"label":"ཚལ་གུང་ཐང་","src":"name:bo","bo":"ཚལ་གུང་ཐང་","en":"Caigungtang Subdistrict","name":"蔡公堂街道","place":"","level":"8","kind":"admin","id":"relation/8252888"},{"lon":90.9600674,"lat":29.4404964,"label":"ཚལ་སྣ","src":"name:bo","bo":"ཚལ་སྣ","en":"Caina","name":"才纳乡","place":"","level":"8","kind":"admin","id":"relation/11820849"},{"lon":92.6795462,"lat":29.449991,"label":"ཚེ་ཆུ་ཤང","src":"name:bo","bo":"ཚེ་ཆུ་ཤང","en":"Cêqu township","name":"崔久乡","place":"","level":"8","kind":"admin","id":"relation/12300371"},{"lon":97.1579227,"lat":31.685959,"label":"ཚེ་དབད་ཤང་།","src":"name:bo","bo":"ཚེ་དབད་ཤང་།","en":"","name":"柴维乡","place":"","level":"8","kind":"admin","id":"relation/12346167"},{"lon":87.9704134,"lat":29.8365895,"label":"ཚོ་བཞི་ཤང་།","src":"name:bo","bo":"ཚོ་བཞི་ཤང་།","en":"","name":"措布西乡","place":"","level":"8","kind":"admin","id":"relation/12312285"},{"lon":92.5046837,"lat":30.4496265,"label":"ཚོ་སྟོད་ཤང་།","src":"name:bo","bo":"ཚོ་སྟོད་ཤང་།","en":"Codoi township","name":"措多乡","place":"","level":"8","kind":"admin","id":"relation/12321557"},{"lon":78.8421273,"lat":32.3247499,"label":"ཚོ་སྲིབ་གསུམ་དཀྱིལ་","src":"name:bo","bo":"ཚོ་སྲིབ་གསུམ་དཀྱིལ་","en":"Tsosib Sumkyil","name":"ཚོ་སྲིབ་གསུམ་དཀྱིལ་ 楚鲁松杰乡","place":"","level":"8","kind":"admin","id":"relation/7697527"},{"lon":82.1935902,"lat":32.9297507,"label":"ཚྭ་ཁ་ཤང","src":"name:bo","bo":"ཚྭ་ཁ་ཤང","en":"Caka township","name":"盐湖乡","place":"","level":"8","kind":"admin","id":"relation/7697934"},{"lon":93.288198,"lat":31.4882574,"label":"ཚྭ་ཆུ་ཤང་།","src":"name:bo","bo":"ཚྭ་ཆུ་ཤང་།","en":"","name":"茶曲乡","place":"","level":"8","kind":"admin","id":"relation/12321570"},{"lon":88.4183727,"lat":29.7253535,"label":"ཚྭ་ཕུ་ཤང་།","src":"name:bo","bo":"ཚྭ་ཕུ་ཤང་།","en":"","name":"查布乡","place":"","level":"8","kind":"admin","id":"relation/12312289"},{"lon":86.5031045,"lat":30.1855167,"label":"ཚྭ་རྩེ་ཤང་།","src":"name:bo","bo":"ཚྭ་རྩེ་ཤང་།","en":"","name":"查孜乡","place":"","level":"8","kind":"admin","id":"relation/12311233"},{"lon":97.7163588,"lat":30.284699,"label":"ཚྭ་ལ་ཤང","src":"name:bo","bo":"ཚྭ་ལ་ཤང","en":"Calamdo township","name":"察拉乡","place":"","level":"8","kind":"admin","id":"relation/12346200"},{"lon":97.5829118,"lat":30.8916315,"label":"ཝ་མཁར་ཤང","src":"name:bo","bo":"ཝ་མཁར་ཤང","en":"Wangkar township","name":"王卡乡","place":"","level":"8","kind":"admin","id":"relation/12346206"},{"lon":97.8366743,"lat":29.5974555,"label":"ཝ་མདའ།","src":"name:bo","bo":"ཝ་མདའ།","en":"Wangda","name":"旺达镇","place":"","level":"8","kind":"admin","id":"relation/12346175"},{"lon":96.7058239,"lat":30.2181417,"label":"ཝ་ཤང","src":"name:bo","bo":"ཝ་ཤང","en":"Wa township","name":"瓦乡","place":"","level":"8","kind":"admin","id":"relation/12346145"},{"lon":88.1885348,"lat":30.9934259,"label":"ཞ་གོ་ཤང","src":"name:bo","bo":"ཞ་གོ་ཤང","en":"Zhago township","name":"下过乡","place":"","level":"8","kind":"admin","id":"relation/12321528"},{"lon":87.8177927,"lat":29.0598967,"label":"ཞི་ཆེན་ཤང་།","src":"name:bo","bo":"ཞི་ཆེན་ཤང་།","en":"","name":"锡钦乡","place":"","level":"8","kind":"admin","id":"relation/12311873"},{"lon":88.5751959,"lat":32.2786118,"label":"ཞི་བདེ་ཤང","src":"name:bo","bo":"ཞི་བདེ་ཤང","en":"Zhide township","name":"协德乡","place":"","level":"8","kind":"admin","id":"relation/12321522"},{"lon":95.7487091,"lat":31.3219605,"label":"ཞེ་གཞུང་ཤང","src":"name:bo","bo":"ཞེ་གཞུང་ཤང","en":"Xêxung township","name":"协雄乡","place":"","level":"8","kind":"admin","id":"relation/12341719"},{"lon":92.5577659,"lat":28.6449862,"label":"ཞོལ་གསར","src":"name:bo","bo":"ཞོལ་གསར","en":"Shosa","name":"雪萨乡","place":"","level":"8","kind":"admin","id":"relation/12210074"},{"lon":91.486042,"lat":29.9061575,"label":"ཞོལ་ཤང་།","src":"name:bo","bo":"ཞོལ་ཤང་།","en":"","name":"雪乡","place":"","level":"8","kind":"admin","id":"relation/12338752"},{"lon":97.7425286,"lat":29.447584,"label":"ཞྭ་གླིང་ཁ་ཤང","src":"name:bo","bo":"ཞྭ་གླིང་ཁ་ཤང","en":"Zhalingkha","name":"下林卡乡","place":"","level":"8","kind":"admin","id":"relation/12346182"},{"lon":92.0270395,"lat":29.3942751,"label":"ཟངས་རི་གྲོང་རྡལ","src":"name:bo","bo":"ཟངས་རི་གྲོང་རྡལ","en":"Sangri town","name":"桑日镇","place":"","level":"8","kind":"admin","id":"relation/12300359"},{"lon":96.7225241,"lat":31.5208372,"label":"ཟམ་ཁ་ཤང","src":"name:bo","bo":"ཟམ་ཁ་ཤང","en":"Samka township","name":"尚卡乡","place":"","level":"8","kind":"admin","id":"relation/12346155"},{"lon":99.0040007,"lat":29.3924672,"label":"ཟུར་བདེ་ཤོད་","src":"name:bo","bo":"ཟུར་བདེ་ཤོད་","en":"Zurdeshö","name":"索多西乡","place":"","level":"8","kind":"admin","id":"relation/11808260"},{"lon":86.3339921,"lat":28.9309338,"label":"ཟུར་མཚོ་ཤང","src":"name:bo","bo":"ཟུར་མཚོ་ཤང","en":"Zurtso Township","name":"锁作乡","place":"","level":"8","kind":"admin","id":"relation/12304395"},{"lon":84.7560022,"lat":31.3952476,"label":"ཟླ་གཞུང་ཤང","src":"name:bo","bo":"ཟླ་གཞུང་ཤང","en":"Daxung township","name":"达雄乡","place":"","level":"8","kind":"admin","id":"relation/7698296"},{"lon":93.0020884,"lat":31.4825096,"label":"ཟླ་ཐང་ཤང་།","src":"name:bo","bo":"ཟླ་ཐང་ཤང་།","en":"","name":"达塘乡","place":"","level":"8","kind":"admin","id":"relation/12321572"},{"lon":97.6926715,"lat":30.9552001,"label":"འཁན་ཐང་","src":"name:bo","bo":"འཁན་ཐང་","en":"Kaintang","name":"肯通乡","place":"","level":"8","kind":"admin","id":"relation/12346209"},{"lon":92.4199468,"lat":31.6103172,"label":"འཁོར་མང་ཤང","src":"name:bo","bo":"འཁོར་མང་ཤང","en":"Kormang township","name":"孔玛乡","place":"","level":"8","kind":"admin","id":"relation/12321551"},{"lon":97.8727972,"lat":30.8545769,"label":"འཁོར་རྭ་ཤང","src":"name:bo","bo":"འཁོར་རྭ་ཤང","en":"Korra township","name":"扩达乡","place":"","level":"8","kind":"admin","id":"relation/12346204"},{"lon":88.1691745,"lat":30.5747956,"label":"འཁྱག་ཤང","src":"name:bo","bo":"འཁྱག་ཤང","en":"Khyak","name":"卡乡","place":"","level":"8","kind":"admin","id":"relation/12321531"},{"lon":98.5082636,"lat":30.0623601,"label":"འགག་མདོ།","src":"name:bo","bo":"འགག་མདོ།","en":"Gardo Township","name":"昂多乡","place":"","level":"8","kind":"admin","id":"relation/12346185"},{"lon":96.9311712,"lat":31.2093997,"label":"འགུ་རོ་གྲོང་རྡལ","src":"name:bo","bo":"འགུ་རོ་གྲོང་རྡལ","en":"Guro town","name":"俄洛镇","place":"","level":"8","kind":"admin","id":"relation/12346156"},{"lon":86.0110579,"lat":28.0115447,"label":"འགྲམ་གྲོང་བརྡལ","src":"name:bo","bo":"འགྲམ་གྲོང་བརྡལ","en":"Dram town","name":"樟木镇 འགྲམ","place":"","level":"8","kind":"admin","id":"relation/11767373"},{"lon":88.4480124,"lat":28.4996455,"label":"འགྲིག་ཤང་།","src":"name:bo","bo":"འགྲིག་ཤང་།","en":"","name":"直克乡","place":"","level":"8","kind":"admin","id":"relation/12302530"},{"lon":87.4174992,"lat":31.1138434,"label":"འགྲོ་ཉིན་ཤང","src":"name:bo","bo":"འགྲོ་ཉིན་ཤང","en":"Dro'nyin township","name":"卓尼乡","place":"","level":"8","kind":"admin","id":"relation/12321514"},{"lon":97.6029587,"lat":28.6350209,"label":"འགྲོ་བ་དགོན་གྲོང་རྡལ","src":"name:bo","bo":"འགྲོ་བ་དགོན་གྲོང་རྡལ","en":"Zhowagoin town","name":"竹瓦根镇","place":"","level":"8","kind":"admin","id":"relation/12339496"},{"lon":98.6189687,"lat":29.0081511,"label":"འཇང་མི་རིགས་ཤང་།","src":"name:bo","bo":"འཇང་མི་རིགས་ཤང་།","en":"Naxi Ethnic Township","name":"纳西民族乡","place":"","level":"8","kind":"admin","id":"relation/12346190"},{"lon":98.2186521,"lat":31.4940448,"label":"འཇོ་མདའ་གྲོང་རྡལ","src":"name:bo","bo":"འཇོ་མདའ་གྲོང་རྡལ","en":"Jomda town","name":"江达镇","place":"","level":"8","kind":"admin","id":"relation/12348096"},{"lon":97.7789319,"lat":32.3690302,"label":"འདན་ཁོག་ཤང","src":"name:bo","bo":"འདན་ཁོག་ཤང","en":"Dainkog township","name":"邓柯乡","place":"","level":"8","kind":"admin","id":"relation/12348091"},{"lon":93.3061416,"lat":32.4128253,"label":"འདམ་གཤུང་","src":"name:bo","bo":"འདམ་གཤུང་","en":"Damshung","name":"当木江乡","place":"","level":"8","kind":"admin","id":"relation/8244855"},{"lon":91.007902,"lat":30.5024886,"label":"འདམ་ཆུ་ཁ་གྲོང་རྡལ།","src":"name:bo","bo":"འདམ་ཆུ་ཁ་གྲོང་རྡལ།","en":"","name":"当曲卡镇","place":"","level":"8","kind":"admin","id":"relation/12338731"},{"lon":87.4432754,"lat":27.917965,"label":"འདྲེན་ཐང་","src":"name:bo","bo":"འདྲེན་ཐང་","en":"Chentang","name":"陈塘镇","place":"","level":"8","kind":"admin","id":"relation/11768177"},{"lon":91.6359763,"lat":28.9329768,"label":"འཕྱོངས་རྒྱས་རྫོང།","src":"name:bo","bo":"འཕྱོངས་རྒྱས་རྫོང།","en":"Chongye Town","name":"琼结镇","place":"","level":"8","kind":"admin","id":"relation/11786536"},{"lon":84.5191124,"lat":29.1535338,"label":"འཕྲང་སྒོ་ཤང","src":"name:bo","bo":"འཕྲང་སྒོ་ཤང","en":"Changgo township","name":"昌果乡","place":"","level":"8","kind":"admin","id":"relation/12304369"},{"lon":91.145832,"lat":29.4202289,"label":"འཕྲེང་གོ","src":"name:bo","bo":"འཕྲེང་གོ","en":"Chenggo","name":"昌果乡","place":"","level":"8","kind":"admin","id":"relation/12300350"},{"lon":92.911613,"lat":29.4559371,"label":"འབའ","src":"name:bo","bo":"འབའ","en":"Ba township","name":"坝乡","place":"","level":"8","kind":"admin","id":"relation/11796510"},{"lon":98.923409,"lat":29.480012,"label":"འབུམ་པ།","src":"name:bo","bo":"འབུམ་པ།","en":"Bumpa","name":"莽岭乡","place":"","level":"8","kind":"admin","id":"relation/12346192"},{"lon":98.8378709,"lat":30.4081583,"label":"འབུམ་སྐྱེས་ཤང","src":"name:bo","bo":"འབུམ་སྐྱེས་ཤང","en":"Bumgyê township","name":"木协乡","place":"","level":"8","kind":"admin","id":"relation/11808876"},{"lon":95.2361472,"lat":32.0022531,"label":"འབོ་ཐ་ཤང་།","src":"name:bo","bo":"འབོ་ཐ་ཤང་།","en":"","name":"布塔乡","place":"","level":"8","kind":"admin","id":"relation/12341712"},{"lon":98.2201527,"lat":30.8285131,"label":"འབོ་ལོ་གྲོང་རྡལ","src":"name:bo","bo":"འབོ་ལོ་གྲོང་རྡལ","en":"Bolo town","name":"莫洛镇","place":"","level":"8","kind":"admin","id":"relation/12346202"},{"lon":92.2670252,"lat":29.3940492,"label":"འབོད་ཐོས་ཤང","src":"name:bo","bo":"འབོད་ཐོས་ཤང","en":"Boitoi township","name":"白堆乡","place":"","level":"8","kind":"admin","id":"relation/12300362"},{"lon":94.9999881,"lat":29.2221546,"label":"འབྲས་སྤུངས་ཤང","src":"name:bo","bo":"འབྲས་སྤུངས་ཤང","en":"Baibung township","name":"背崩乡","place":"","level":"8","kind":"admin","id":"relation/12339490"},{"lon":93.6072651,"lat":31.4834448,"label":"འབྲི་རུ་གྲོང་རྡལ།","src":"name:bo","bo":"འབྲི་རུ་གྲོང་རྡལ།","en":"","name":"比如镇","place":"","level":"8","kind":"admin","id":"relation/12321568"},{"lon":93.4616164,"lat":30.2474335,"label":"འབྲུག་ལ་ཤང","src":"name:bo","bo":"འབྲུག་ལ་ཤང","en":"Zhugla township","name":"朱拉乡","place":"","level":"8","kind":"admin","id":"relation/12339474"},{"lon":85.4865622,"lat":32.1294892,"label":"འབྲོང་ཚང་ཤང","src":"name:bo","bo":"འབྲོང་ཚང་ཤང","en":"Zhongcang township","name":"中仓乡","place":"","level":"8","kind":"admin","id":"relation/12321510"},{"lon":89.4528739,"lat":28.9892279,"label":"འབྲོང་རྩེ་ཤང་།","src":"name:bo","bo":"འབྲོང་རྩེ་ཤང་།","en":"","name":"重孜乡","place":"","level":"8","kind":"admin","id":"relation/12302944"},{"lon":91.3212347,"lat":29.7247471,"label":"འབྲོམ་སྟོད","src":"name:bo","bo":"འབྲོམ་སྟོད","en":"Dromdoi","name":"帮堆乡","place":"","level":"8","kind":"admin","id":"relation/11824515"},{"lon":97.7887803,"lat":31.7357372,"label":"འཛི་སྒར་ཤང","src":"name:bo","bo":"འཛི་སྒར་ཤང","en":"Zigar township","name":"字呷乡","place":"","level":"8","kind":"admin","id":"relation/12348094"},{"lon":83.5327003,"lat":32.663083,"label":"འོ་མ་ཤང","src":"name:bo","bo":"འོ་མ་ཤང","en":"Oma township","name":"物玛乡","place":"","level":"8","kind":"admin","id":"relation/7698197"},{"lon":86.6835882,"lat":31.4556126,"label":"འོམ་བུ","src":"name:bo","bo":"འོམ་བུ","en":"Ombu township","name":"文布乡","place":"","level":"8","kind":"admin","id":"relation/12321512"},{"lon":82.7380368,"lat":32.3253621,"label":"འོམ་བུ་དྭངས་བསངས་ཤང","src":"name:bo","bo":"འོམ་བུ་དྭངས་བསངས་ཤང","en":"Ombutangsang","name":"文布当桑乡","place":"","level":"8","kind":"admin","id":"relation/7697933"},{"lon":94.5360316,"lat":31.9062046,"label":"ཡ་ང་གྲོང་རྡལ།","src":"name:bo","bo":"ཡ་ང་གྲོང་རྡལ།","en":"Ya'nga town","name":"雅安镇","place":"","level":"8","kind":"admin","id":"relation/8244931"},{"lon":87.5892793,"lat":29.7179259,"label":"ཡ་མོ་ཤང་།","src":"name:bo","bo":"ཡ་མོ་ཤང་།","en":"","name":"亚木乡","place":"","level":"8","kind":"admin","id":"relation/12311246"},{"lon":91.8766459,"lat":28.8934797,"label":"ཡ་སྟོད་","src":"name:bo","bo":"ཡ་སྟོད་","en":"Yardoi","name":"亚堆乡","place":"","level":"8","kind":"admin","id":"relation/12300351"},{"lon":89.2974368,"lat":34.5548292,"label":"ཡག་ཆུ་ཤང་།","src":"name:bo","bo":"ཡག་ཆུ་ཤང་།","en":"","name":"雅曲乡","place":"","level":"8","kind":"admin","id":"relation/12321526"},{"lon":84.1285338,"lat":29.5253645,"label":"ཡག་ར་ཤང","src":"name:bo","bo":"ཡག་ར་ཤང","en":"Yagra township","name":"亚热乡","place":"","level":"8","kind":"admin","id":"relation/12304368"},{"lon":82.2835784,"lat":31.2029065,"label":"ཡག་ར་ཤང","src":"name:bo","bo":"ཡག་ར་ཤང","en":"Yagra township","name":"亚热乡","place":"","level":"8","kind":"admin","id":"relation/7697890"},{"lon":90.4684831,"lat":30.1698732,"label":"ཡངས་པ་ཅན་གྲོང་རྡལ།","src":"name:bo","bo":"ཡངས་པ་ཅན་གྲོང་རྡལ།","en":"","name":"羊八井镇","place":"","level":"8","kind":"admin","id":"relation/12338727"},{"lon":96.4262539,"lat":30.5279915,"label":"ཡངས་པ་ཤང","src":"name:bo","bo":"ཡངས་པ་ཤང","en":"Yangba township","name":"拥乡","place":"","level":"8","kind":"admin","id":"relation/12346148"},{"lon":92.1642635,"lat":33.5198052,"label":"ཡན་ཤིས་ཕིན་གྲོང་རྡལ།","src":"name:bo","bo":"ཡན་ཤིས་ཕིན་གྲོང་རྡལ།","en":"Yanshiping Town","name":"雁石坪镇 ཡན་ཤིས་ཕིན།","place":"","level":"8","kind":"admin","id":"relation/8242772"},{"lon":90.9541313,"lat":29.7208009,"label":"ཡབ་མདའ་","src":"name:bo","bo":"ཡབ་མདའ་","en":"Yabda Subdistrict","name":"羊达街道","place":"","level":"8","kind":"admin","id":"relation/11822091"},{"lon":86.0423599,"lat":28.4025725,"label":"ཡར་སླེབས་ཤང","src":"name:bo","bo":"ཡར་སླེབས་ཤང","en":"Yarlêb township","name":"亚来乡","place":"","level":"8","kind":"admin","id":"relation/12304392"},{"lon":97.0615953,"lat":30.6232974,"label":"ཡིད་ཆེན་ཤང་།","src":"name:bo","bo":"ཡིད་ཆེན་ཤང་།","en":"","name":"益庆乡","place":"","level":"8","kind":"admin","id":"relation/12346142"},{"lon":94.9347503,"lat":30.3326427,"label":"ཡིད་འོང་ཤང","src":"name:bo","bo":"ཡིད་འོང་ཤང","en":"Yi'ong township","name":"易贡乡","place":"","level":"8","kind":"admin","id":"relation/12339479"},{"lon":96.2963342,"lat":30.7456294,"label":"ཡུལ་བཞི་ཤང","src":"name:bo","bo":"ཡུལ་བཞི་ཤང","en":"Yüxi township","name":"玉西乡","place":"","level":"8","kind":"admin","id":"relation/12346136"},{"lon":93.1190769,"lat":28.4902656,"label":"ཡུལ་སྨད་ཤང་།","src":"name:bo","bo":"ཡུལ་སྨད་ཤང་།","en":"Yumai township","name":"玉麦乡","place":"","level":"8","kind":"admin","id":"relation/12210067"},{"lon":89.1871726,"lat":29.4485407,"label":"ཡེ་མ་","src":"name:bo","bo":"ཡེ་མ་","en":"Êma","name":"艾玛乡","place":"","level":"8","kind":"admin","id":"relation/7700089"},{"lon":96.9370382,"lat":31.7203487,"label":"ཡོར་པ་ཤང","src":"name:bo","bo":"ཡོར་པ་ཤང","en":"Yorba township","name":"约巴乡","place":"","level":"8","kind":"admin","id":"relation/12346166"},{"lon":92.0228743,"lat":30.713183,"label":"ཡོས་ཆགས་ཤང","src":"name:bo","bo":"ཡོས་ཆགས་ཤང","en":"Yoiqag township","name":"油恰乡","place":"","level":"8","kind":"admin","id":"relation/12321548"},{"lon":89.3884456,"lat":29.7327988,"label":"ར་ཐང་","src":"name:bo","bo":"ར་ཐང་","en":"Ratang","name":"热当乡","place":"","level":"8","kind":"admin","id":"relation/7700104"},{"lon":81.1297414,"lat":33.2470041,"label":"ར་བང་ཤང","src":"name:bo","bo":"ར་བང་ཤང","en":"Rawang township","name":"热帮乡","place":"","level":"8","kind":"admin","id":"relation/7697691"},{"lon":95.126598,"lat":31.1304851,"label":"ར་ཡུལ་ཤང","src":"name:bo","bo":"ར་ཡུལ་ཤང","en":"Rayü township","name":"热玉乡","place":"","level":"8","kind":"admin","id":"relation/11816611"},{"lon":90.0981489,"lat":28.8690318,"label":"ར་ལུང་ཤང་།","src":"name:bo","bo":"ར་ལུང་ཤང་།","en":"","name":"热龙乡","place":"","level":"8","kind":"admin","id":"relation/12302953"},{"lon":88.0654673,"lat":29.1230883,"label":"ར་ས་ཤང་།","src":"name:bo","bo":"ར་ས་ཤང་།","en":"","name":"热萨乡","place":"","level":"8","kind":"admin","id":"relation/12311860"},{"lon":89.3963979,"lat":29.0141941,"label":"ར་སོག་ཤང་།","src":"name:bo","bo":"ར་སོག་ཤང་།","en":"","name":"热索乡","place":"","level":"8","kind":"admin","id":"relation/12302947"},{"lon":97.7812876,"lat":30.4994642,"label":"རང་གྲུབ་ཤང","src":"name:bo","bo":"རང་གྲུབ་ཤང","en":"Rangzhub township","name":"荣周乡","place":"","level":"8","kind":"admin","id":"relation/12346199"},{"lon":97.833554,"lat":29.2267764,"label":"རབ་ཅན་ཤང","src":"name:bo","bo":"རབ་ཅན་ཤང","en":"Rabchen Township","name":"绕金乡","place":"","level":"8","kind":"admin","id":"relation/11807249"},